"id","ident","type","name","latitude_deg","longitude_deg","elevation_ft","continent","iso_country","iso_region","municipality","scheduled_service","gps_code","iata_code","local_code","home_link","wikipedia_link","keywords"
12243,"5A8","medium_airport","Aleknagik / New Airport",59.2826004028,-158.617996216,66,NA,"US","US-AK","Aleknagik","yes","5A8","WKK","5A8","","http://en.wikipedia.org/wiki/Aleknagik_Airport",""
3,"AGGH","medium_airport","Honiara International Airport",-9.4280004501343,160.05499267578,28,"OC","SB","SB-CT","Honiara","yes","AGGH","HIR","","","http://en.wikipedia.org/wiki/Honiara_International_Airport","Henderson Field"
4,"AGGM","medium_airport","Munda Airport",-8.32796955108643,157.263000488281,10,"OC","SB","SB-WE","","yes","AGGM","MUA","","","http://en.wikipedia.org/wiki/Munda_Airport",""
312371,"AHJ","medium_airport","Hongyuan Airport",32.53154,102.35224,11600,"AS","CN","CN-51","Aba","no","ZUHY","AHJ","","","http://en.wikipedia.org/wiki/Hongyuan_Airport",""
8,"ANYN","medium_airport","Nauru International Airport",-0.547458,166.919006,22,"OC","NR","NR-14","Yaren District","yes","ANYN","INU","","","http://en.wikipedia.org/wiki/Nauru_International_Airport","ANAU"
314558,"AXF","medium_airport","Alxa Left Banner Bayanhot Airport",38.74831,105.58858,4560,"AS","CN","CN-15","Bayanhot","yes","ZBAL","AXF","","","http://en.wikipedia.org/wiki/Alxa_Left_Banner_Bayanhot_Airport",""
53,"AYBK","medium_airport","Buka Airport",-5.4223198890686,154.673004150391,11,"OC","PG","PG-NSB","Buka Island","yes","AYBK","BUA","","","http://en.wikipedia.org/wiki/Buka_Airport",""
54,"AYCH","medium_airport","Chimbu Airport",-6.02429008483887,144.970993041992,4974,"OC","PG","PG-CPK","Kundiawa","yes","AYCH","CMU","","","http://en.wikipedia.org/wiki/Chimbu_Airport",""
55,"AYDU","medium_airport","Daru Airport",-9.08675956726,143.207992554,20,"OC","PG","PG-WPD","Daru","yes","AYDU","DAU","","","http://en.wikipedia.org/wiki/Daru_Airport",""
56,"AYGA","medium_airport","Goroka Airport",-6.08168983459,145.391998291,5282,"OC","PG","PG-EHG","Goronka","yes","AYGA","GKA","","","http://en.wikipedia.org/wiki/Goroka_Airport",""
57,"AYGN","medium_airport","Gurney Airport",-10.3114995956,150.333999634,88,"OC","PG","PG-MBA","Gurney","yes","AYGN","GUR","","","http://en.wikipedia.org/wiki/Gurney_Airport",""
58,"AYGR","medium_airport","Girua Airport",-8.80453968048,148.309005737,311,"OC","PG","PG-NPP","Popondetta","yes","AYGR","PNP","","","http://en.wikipedia.org/wiki/Girua_Airport",""
59,"AYHK","medium_airport","Kimbe Airport",-5.46217012405396,150.404998779297,66,"OC","PG","PG-WBK","Hoskins","yes","AYHK","HKN","","","http://en.wikipedia.org/wiki/Hoskins_Airport",""
60,"AYKM","medium_airport","Kerema Airport",-7.96361017227,145.770996094,10,"OC","PG","PG-GPK","Kerema","yes","AYKM","KMA","","","http://en.wikipedia.org/wiki/Kerema_Airport",""
61,"AYKV","medium_airport","Kavieng Airport",-2.57940006256,150.807998657,7,"OC","PG","PG-NIK","Kavieng","yes","AYKV","KVG","","","http://en.wikipedia.org/wiki/Kavieng_Airport",""
62,"AYMD","medium_airport","Madang Airport",-5.20707988739,145.789001465,20,"OC","PG","PG-MPM","Madang","yes","AYMD","MAG","","","http://en.wikipedia.org/wiki/Madang_Airport",""
63,"AYMH","medium_airport","Mount Hagen Kagamuga Airport",-5.82678985595703,144.296005249023,5388,"OC","PG","PG-WHM","Mount Hagen","yes","AYMH","HGU","","","http://en.wikipedia.org/wiki/Mount_Hagen_Airport",""
64,"AYMN","medium_airport","Mendi Airport",-6.14774,143.656998,5680,"OC","PG","PG-SHM","Mendi","yes","AYMN","MDU","","","http://en.wikipedia.org/wiki/Mendi_Airport",""
65,"AYMO","medium_airport","Momote Airport",-2.06189,147.423996,12,"OC","PG","PG-MRL","Manus Island","yes","AYMO","MAS","","","http://en.wikipedia.org/wiki/Momote_Airport",""
66,"AYNZ","medium_airport","Nadzab Airport",-6.569803,146.725977,239,"OC","PG","PG-MPL","Lae","yes","AYNZ","LAE","","","http://en.wikipedia.org/wiki/Lae_Nadzab_Airport","MFO"
67,"AYPY","large_airport","Port Moresby Jacksons International Airport",-9.44338035583496,147.220001220703,146,"OC","PG","PG-NCD","Port Moresby","yes","AYPY","POM","","","http://en.wikipedia.org/wiki/Jacksons_International_Airport",""
68,"AYTK","medium_airport","Tokua Airport",-4.34045982361,152.380004883,32,"OC","PG","PG-EBR","Tokua","yes","AYTK","RAB","","","http://en.wikipedia.org/wiki/Rabaul_Airport",""
69,"AYVN","medium_airport","Vanimo Airport",-2.6926,141.3028,10,"OC","PG","PG-SAN","Vanimo","yes","AYVN","VAI","","","http://en.wikipedia.org/wiki/Vanimo_Airport",""
70,"AYWD","medium_airport","Wapenamanda Airport",-5.64330005645752,143.895004272461,5889,"OC","PG","PG-EPW","","yes","AYWD","WBM","","","http://en.wikipedia.org/wiki/Wapenamanda_Airport",""
71,"AYWK","medium_airport","Wewak International Airport",-3.58383011818,143.669006348,19,"OC","PG","PG-ESW","Wewak","yes","AYWK","WWK","","","http://en.wikipedia.org/wiki/Wewak_International_Airport",""
44941,"AZ-0001","medium_airport","Zabrat Airport",40.4955422161,49.9768066406,36,"AS","AZ","AZ-BA","Baku","no","UBTT","ZXT","","","https://en.wikipedia.org/wiki/Zabrat_Airport",""
27301,"BCW","medium_airport","Benguera Island Airport",-21.8533000946045,35.4383010864258,NA,"AF","MZ","MZ-I","Benguera Island","yes","","BCW","","","http://en.wikipedia.org/wiki/Benguera_Island_Airport",""
111,"BG-JAM","medium_airport","Bezmer Air Base",42.4548988342,26.3521995544,509,"EU","BG","BG-28","Yambol","no","LBIA","JAM","","","http://en.wikipedia.org/wiki/Bezmer_Airbase","LB44"
31697,"BGAA","medium_airport","Aasiaat Airport",68.7218017578,-52.7846984863,74,NA,"GL","GL-U-A","Aasiaat","yes","BGAA","JEG","","http://airgreenland.com/om_rejsen/efter_rejsen/din_destination_/aasiaat/","http://en.wikipedia.org/wiki/Aasiaat_Airport",""
113,"BGBW","medium_airport","Narsarsuaq Airport",61.1604995728,-45.4259986877,112,NA,"GL","GL-U-A","Narsarsuaq","yes","BGBW","UAK","","","http://en.wikipedia.org/wiki/Narsarsuaq_Airport",""
114,"BGGH","medium_airport","Godthaab / Nuuk Airport",64.19090271,-51.6781005859,283,NA,"GL","GL-U-A","Nuuk","yes","BGGH","GOH","","","http://en.wikipedia.org/wiki/Nuuk_Airport","Nuussuaq"
115,"BGSF","medium_airport","Kangerlussuaq Airport",67.0122218992,-50.7116031647,165,NA,"GL","GL-U-A","Kangerlussuaq","yes","BGSF","SFJ","","","http://en.wikipedia.org/wiki/Kangerlussuaq_Airport","Sondre Stromfjord"
116,"BGTL","medium_airport","Thule Air Base",76.5311965942,-68.7032012939,251,NA,"GL","GL-U-A","Thule","yes","BGTL","THU","","","http://en.wikipedia.org/wiki/Thule_Air_Base","Pituffik"
117,"BIAR","medium_airport","Akureyri Airport",65.6600036621094,-18.0727005004883,6,"EU","IS","IS-6","Akureyri","yes","BIAR","AEY","","","http://en.wikipedia.org/wiki/Akureyri_Airport",""
119,"BIEG","medium_airport","Egilsstaðir Airport",65.2833023071289,-14.4013996124268,76,"EU","IS","IS-7","Egilsstaðir","yes","BIEG","EGS","","","http://en.wikipedia.org/wiki/Egilssta%C3%B0ir_Airport",""
120,"BIHN","medium_airport","Hornafjörður Airport",64.295601,-15.2272,24,"EU","IS","IS-8","Höfn","yes","BIHN","HFN","","","https://en.wikipedia.org/wiki/Hornafj%C3%B6r%C3%B0ur_Airport",""
121,"BIHU","medium_airport","Húsavík Airport",65.952301,-17.426001,48,"EU","IS","IS-6","Húsavík","yes","BIHU","HZK","","","https://en.wikipedia.org/wiki/H%C3%BAsav%C3%ADk_Airport",""
122,"BIIS","medium_airport","Ísafjörður Airport",66.0580978393555,-23.1352996826172,8,"EU","IS","IS-4","Ísafjörður","yes","BIIS","IFJ","","","http://en.wikipedia.org/wiki/%C3%8Dsafj%C3%B6r%C3%B0ur_Airport",""
123,"BIKF","large_airport","Keflavik International Airport",63.985000610352,-22.605600357056,171,"EU","IS","IS-2","Reykjavík","yes","BIKF","KEF","","","http://en.wikipedia.org/wiki/Keflav%C3%ADk_International_Airport","Keflavik Naval Air Station,REK"
125,"BIRK","medium_airport","Reykjavik Airport",64.1299972534,-21.9405994415,48,"EU","IS","IS-1","Reykjavik","yes","BIRK","RKV","","","http://en.wikipedia.org/wiki/Reykjav%C3%ADk_Airport","REK"
126,"BISI","medium_airport","Siglufjörður Airport",66.133301,-18.9167,10,"EU","IS","IS-6","Siglufjörður","no","BISI","SIJ","","","https://en.wikipedia.org/wiki/Siglufj%C3%B6r%C3%B0ur_Airport",""
128,"BIVM","medium_airport","Vestmannaeyjar Airport",63.4243011474609,-20.2789001464844,326,"EU","IS","IS-8","Vestmannaeyjar","no","BIVM","VEY","","","http://en.wikipedia.org/wiki/Vestmannaeyjar_Airport",""
4614,"BKPR","large_airport","Priština International Airport",42.5728,21.035801,1789,"EU","XK","XK-01","Prishtina","yes","BKPR","PRN","","http://www.airportpristina.com/","https://en.wikipedia.org/wiki/Pristina_International_Airport","LYPR, Pristina, Slatina Air Base"
42216,"BZ-BGK","medium_airport","Big Creek Airport",16.5193691253662,-88.4079132080078,3,NA,"BZ","BZ-SC","Big Creek","yes","","BGK","","","http://en.wikipedia.org/wiki/Big_Creek_Airport_(Belize)",""
30861,"BZ-CUK","medium_airport","Caye Caulker Airport",17.7346992492676,-88.0325012207031,1,NA,"BZ","BZ-BZ","Caye Caulker","yes","","CUK","","","http://en.wikipedia.org/wiki/Caye_Caulker_Airport",""
30867,"BZ-CYC","medium_airport","Caye Chapel Airport",17.7007999420166,-88.0410995483398,3,NA,"BZ","BZ-BZ","Caye Chapel","yes","","CYC","","","http://en.wikipedia.org/wiki/Caye_Chapel_Airport",""
42209,"BZ-CZH","medium_airport","Corozal Municipal Airport",18.3822002410889,-88.4119033813477,40,NA,"BZ","BZ-CZL","Corozal","yes","","CZH","","","http://en.wikipedia.org/wiki/Corozal_Airport","Ranchito Airport"
42207,"BZ-DGA","medium_airport","Dangriga Airport",16.9825096130371,-88.2309875488281,508,NA,"BZ","BZ-SC","Dangriga","yes","","DGA","","","http://en.wikipedia.org/wiki/Dangriga_Airport","Stann Creek Airport"
42217,"BZ-PLJ","medium_airport","Placencia Airport",16.5369567871094,-88.3615112304688,3,NA,"BZ","BZ-SC","Placencia","yes","","PLJ","","","http://en.wikipedia.org/wiki/Placencia_Airport",""
35305,"BZ-PND","medium_airport","Punta Gorda Airport",16.102399826,-88.8082962036,7,NA,"BZ","BZ-TOL","Punta Gorda","yes","","PND","","","http://en.wikipedia.org/wiki/Punta_Gorda_Airport",""
42210,"BZ-SJX","medium_airport","Sartaneja Airport",18.3561000823975,-88.1307983398438,3,NA,"BZ","BZ-CZL","Sartaneja","yes","","SJX","","","http://en.wikipedia.org/wiki/Sartaneja_Airport",""
32370,"BZ-SPR","medium_airport","San Pedro Airport",17.9139,-87.9711,4,NA,"BZ","BZ-CY","San Pedro","yes","MZSP","SPR","","","http://en.wikipedia.org/wiki/San_Pedro_Airport",""
42215,"BZ-TZA","medium_airport","Belize City Municipal Airport",17.5163898468018,-88.1944427490234,16,NA,"BZ","BZ-BZ","Belize City","yes","","TZA","","","http://en.wikipedia.org/wiki/Belize_City_Municipal_Airport",""
27300,"BZB","medium_airport","Bazaruto Island Airport",-21.5411,35.4729,NA,"AF","MZ","MZ-I","Bazaruto Island","no","","BZB","","","http://en.wikipedia.org/wiki/Bazaruto_Island_Airport",""
298989,"CN-0010","medium_airport","Yinchuan Hedong International Airport",38.322758,106.393214,NA,"AS","CN","CN-64","Yinchuan","yes","ZLIC","INC","","http://www.ningxiaairport.com/","https://en.wikipedia.org/wiki/Yinchuan_Hedong_International_Airport",""
44127,"CN-0012","medium_airport","Yuanmou Air Base",25.737499237061,101.88200378418,3810,"AS","CN","CN-53","Yuanmou","no","ZPYM","YUA","","","",""
44100,"CN-0024","medium_airport","Zhangjiakou Ningyuan Airport",40.7386016846,114.930000305,2347,"AS","CN","CN-13","Zhangjiakou","yes","ZBZJ","ZQZ","","","http://en.wikipedia.org/wiki/Zhangjiakou_Ningyuan_Airport","Zhangjiakou Air Base, 张家口宁远机场"
44103,"CN-0027","medium_airport","Baoshan Yunduan Airport",25.053301,99.168297,5453,"AS","CN","CN-53","","yes","ZPBS","BSD","","","http://en.wikipedia.org/wiki/Baoshan_Yunduan_Airport",""
44116,"CN-0040","medium_airport","Lintsang Airfield",23.7381000519,100.025001526,6230,"AS","CN","CN-53","Lincang","yes","ZPLC","LNJ","","","http://en.wikipedia.org/wiki/Lincang_Airport","Lincang Airport"
44122,"CN-0046","medium_airport","Shigatse Air Base",29.3519,89.311401,3782,"AS","CN","CN-54","Xigazê","yes","ZURK","RKZ","","","http://en.wikipedia.org/wiki/Shigatse_Peace_Airport",""
44126,"CN-0050","medium_airport","Bao'anying Airport",26.54,101.79852,1620,"AS","CN","CN-51","Panzhihua","yes","ZUZH","PZI","","","http://en.wikipedia.org/wiki/Panzhihua_Bao'anying_Airport","Xining Air Base, 攀枝花保安营机场"
44139,"CN-0061","medium_airport","Foshan Shadi Airport",23.0832996368,113.069999695,6,"AS","CN","CN-44","Foshan","yes","ZGFS","FUO","","","http://en.wikipedia.org/wiki/Foshan_Shadi_Airport","Guangzhou Shadi Air Base"
44146,"CN-0068","medium_airport","Huizhou Airport",23.0499992371,114.599998474,50,"AS","CN","CN-44","Huizhou","yes","ZGHZ","HUZ","","","http://en.wikipedia.org/wiki/Huizhou_Airport","Huiyang Air Base, Pingtan Airport"
44157,"CN-0079","medium_airport","Shaoguan Guitou Airport",24.9785995483,113.42099762,280,"AS","CN","CN-44","Shaoguan","no","","HSC","","","http://en.wikipedia.org/wiki/Shaoguan_Guitou_Airport","Shaoguan Air Base"
44159,"CN-0081","medium_airport","Jinggangshan Airport",26.8568992615,114.736999512,281,"AS","CN","CN-36","Ji'an","yes","ZSJA","JGS","","","http://en.wikipedia.org/wiki/Jinggangshan_Airport","Tiahe Air Base"
44160,"CN-0082","medium_airport","Baise Youjiang Airport",23.7206001282,106.959999084,490,"AS","CN","CN-45","Baise","yes","ZGBS","AEB","","","http://en.wikipedia.org/wiki/Baise_Youjiang_Airport","Tian Yang Air Base, Bose airport, 百色右江机场"
44169,"CN-0091","medium_airport","Dongying Shengli Airport",37.5085983276,118.788002014,15,"AS","CN","CN-37","Dongying","no","ZSDY","DOY","","","http://en.wikipedia.org/wiki/Dongying_Shengli_Airport","Dongying Air Base, Dongying Yong'an Airport"
44182,"CN-0104","medium_airport","Xingcheng Air Base",40.5802993774,120.697998047,30,"AS","CN","CN-21","","no","ZYXC","XEN","","","",""
44191,"CN-0113","medium_airport","Altay Air Base",47.7498855591,88.0858078003,2460,"AS","CN","CN-65","Altay","yes","ZWAT","AAT","","","http://en.wikipedia.org/wiki/Altay_Airport",""
44208,"CN-0130","medium_airport","Tianshui Maijishan Airport",34.5593986511,105.86000061,3590,"AS","CN","CN-62","Tianshui","yes","ZLTS","THQ","","","http://en.wikipedia.org/wiki/Tianshui_Maijishan_Airport","Tianshui Air Base, 天水麦积山机场"
44221,"CN-0143","medium_airport","Zhangye Ganzhou Airport",38.8018989563,100.675003052,5280,"AS","CN","CN-62","Zhangye","yes","ZLZY","YZY","","","http://en.wikipedia.org/wiki/Zhangye_Ganzhou_Airport","Zhangye Southeast Air Base, 张掖甘州机场"
44267,"CN-0189","medium_airport","Dandong Airport",40.0247,124.286003,30,"AS","CN","CN-21","Dandong","yes","ZYDD","DDG","","http://www.ddcei.gov.cn/english/index.html","http://en.wikipedia.org/wiki/Dandong_Airport",""
44646,"CY-0002","medium_airport","Lefkoniko Airport",35.235947,33.724358,146,"AS","CY","CY-03","Geçitkale","yes","LCGK","GEC","","","https://en.wikipedia.org/wiki/Geçitkale_Air_Base","Geçitkale Air Base"
1652,"CYAC","medium_airport","Cat Lake Airport",51.7271995544434,-91.8244018554688,1344,NA,"CA","CA-ON","Cat Lake","yes","CYAC","YAC","","","http://en.wikipedia.org/wiki/Cat_Lake_Airport",""
1654,"CYAG","medium_airport","Fort Frances Municipal Airport",48.6542015075684,-93.439697265625,1125,NA,"CA","CA-ON","Fort Frances","yes","CYAG","YAG","","","http://en.wikipedia.org/wiki/Fort_Frances_Municipal_Airport",""
1655,"CYAH","medium_airport","La Grande-4 Airport",53.754699707,-73.6753005981,1005,NA,"CA","CA-QC","La Grande-4","no","CYAH","YAH","","","http://en.wikipedia.org/wiki/La_Grande-4_Airport","YAH"
1656,"CYAL","medium_airport","Alert Bay Airport",50.5821990966797,-126.916000366211,240,NA,"CA","CA-BC","Alert Bay","no","CYAL","YAL","","","http://en.wikipedia.org/wiki/Alert_Bay_Airport",""
1657,"CYAM","medium_airport","Sault Ste Marie Airport",46.4850006103516,-84.5093994140625,630,NA,"CA","CA-ON","Sault Ste Marie","yes","CYAM","YAM","","http://www.saultairport.com/","http://en.wikipedia.org/wiki/Sault_Ste._Marie_Airport",""
1658,"CYAQ","medium_airport","Kasabonika Airport",53.5247001647949,-88.6427993774414,672,NA,"CA","CA-ON","Kasabonika","yes","CYAQ","XKS","","","http://en.wikipedia.org/wiki/Kasabonika_Airport","YAQ"
1659,"CYAS","medium_airport","Kangirsuk Airport",60.0271987915039,-69.9991989135742,403,NA,"CA","CA-QC","Kangirsuk","yes","CYAS","YKG","","","http://en.wikipedia.org/wiki/Kangirsuk_Airport","YAS"
1660,"CYAT","medium_airport","Attawapiskat Airport",52.9275016784668,-82.4319000244141,31,NA,"CA","CA-ON","Attawapiskat","yes","CYAT","YAT","","","http://en.wikipedia.org/wiki/Attawapiskat_Airport",""
1665,"CYAY","medium_airport","St. Anthony Airport",51.3918991089,-56.0830993652,108,NA,"CA","CA-NL","St. Anthony","yes","CYAY","YAY","","","http://en.wikipedia.org/wiki/St._Anthony_Airport",""
1666,"CYAZ","medium_airport","Tofino / Long Beach Airport",49.079833,-125.775583,80,NA,"CA","CA-BC","Tofino","yes","CYAZ","YAZ","","http://www.acrd.bc.ca/long-beach-airport","http://en.wikipedia.org/wiki/Tofino_Airport",""
1668,"CYBB","medium_airport","Kugaaruk Airport",68.534401,-89.808098,56,NA,"CA","CA-NU","Kugaaruk","yes","CYBB","YBB","","","http://en.wikipedia.org/wiki/Kugaaruk_Airport","YBB, Pelly Bay Townsite Airport"
1669,"CYBC","medium_airport","Baie Comeau Airport",49.1324996948242,-68.2043991088867,71,NA,"CA","CA-QC","Baie-Comeau","yes","CYBC","YBC","","","http://en.wikipedia.org/wiki/Baie-Comeau_Airport",""
1670,"CYBD","medium_airport","Bella Coola Airport",52.387501,-126.596001,117,NA,"CA","CA-BC","Bella Coola","yes","CYBD","QBC","","","http://en.wikipedia.org/wiki/Bella_Coola_Airport","YBD"
1671,"CYBE","medium_airport","Uranium City Airport",59.5614013671875,-108.481002807617,1044,NA,"CA","CA-SK","Uranium City","yes","CYBE","YBE","","","http://en.wikipedia.org/wiki/Uranium_City_Airport",""
1672,"CYBF","medium_airport","Bonnyville Airport",54.304199,-110.744003,1836,NA,"CA","CA-AB","Bonnyville","yes","CYBF","YBY","","http://town.bonnyville.ab.ca/livingin/airport/index.html","http://en.wikipedia.org/wiki/Bonnyville_Airport","YBF"
1673,"CYBG","medium_airport","CFB Bagotville",48.3306007385254,-70.9963989257812,522,NA,"CA","CA-QC","Bagotville","yes","CYBG","YBG","","","http://en.wikipedia.org/wiki/CFB_Bagotville","Bagotville Airport"
1674,"CYBK","medium_airport","Baker Lake Airport",64.2988967896,-96.077796936,59,NA,"CA","CA-NU","Baker Lake","yes","CYBK","YBK","","","http://en.wikipedia.org/wiki/Baker_Lake_Airport",""
1675,"CYBL","medium_airport","Campbell River Airport",49.9508018493652,-125.271003723145,346,NA,"CA","CA-BC","Campbell River","yes","CYBL","YBL","","","http://en.wikipedia.org/wiki/Campbell_River_Airport",""
1677,"CYBQ","medium_airport","Tadoule Lake Airport",58.7061,-98.512199,923,NA,"CA","CA-MB","Tadoule Lake","yes","CYBQ","XTL","","","http://en.wikipedia.org/wiki/Tadoule_Lake_Airport","YBQ"
1678,"CYBR","medium_airport","Brandon Municipal Airport",49.91,-99.951897,1343,NA,"CA","CA-MB","Brandon","yes","CYBR","YBR","","","http://en.wikipedia.org/wiki/Brandon_Airport",""
1679,"CYBT","medium_airport","Brochet Airport",57.8894,-101.679001,1136,NA,"CA","CA-MB","Brochet","yes","CYBT","YBT","","","http://en.wikipedia.org/wiki/Brochet_Airport",""
1681,"CYBV","medium_airport","Berens River Airport",52.358898,-97.018303,728,NA,"CA","CA-MB","Berens River","yes","CYBV","YBV","","","http://en.wikipedia.org/wiki/Berens_River_Airport",""
1683,"CYBX","medium_airport","Lourdes de Blanc Sablon Airport",51.4435997009,-57.1852989197,121,NA,"CA","CA-QC","Lourdes-De-Blanc-Sablon","yes","CYBX","YBX","","","http://en.wikipedia.org/wiki/Lourdes-de-Blanc-Sablon_Airport",""
1684,"CYCA","medium_airport","Cartwright Airport",53.6828002929688,-57.0419006347656,40,NA,"CA","CA-NL","Cartwright","yes","CYCA","YRF","","","http://en.wikipedia.org/wiki/Cartwright_Airport","YCA"
1685,"CYCB","medium_airport","Cambridge Bay Airport",69.1081008911,-105.138000488,90,NA,"CA","CA-NU","Cambridge Bay","yes","CYCB","YCB","","","http://en.wikipedia.org/wiki/Cambridge_Bay_Airport",""
1686,"CYCC","medium_airport","Cornwall Regional Airport",45.0928001403809,-74.5633010864258,175,NA,"CA","CA-ON","Cornwall","no","CYCC","YCC","","","http://en.wikipedia.org/wiki/Cornwall_Regional_Airport",""
1687,"CYCD","medium_airport","Nanaimo Airport",49.0549702249,-123.869862556,92,NA,"CA","CA-BC","Nanaimo","yes","CYCD","YCD","","","http://en.wikipedia.org/wiki/Nanaimo_Airport",""
1688,"CYCE","medium_airport","Centralia / James T. Field Memorial Aerodrome",43.285599,-81.508301,824,NA,"CA","CA-ON","Centralia","no","CYCE","YCE","CYCE","","http://en.wikipedia.org/wiki/Centralia/Huron_Airpark","RCAF Station Centralia, Huron Airpark"
1689,"CYCG","medium_airport","Castlegar/West Kootenay Regional Airport",49.2963981628,-117.632003784,1624,NA,"CA","CA-BC","Castlegar","yes","CYCG","YCG","","","http://en.wikipedia.org/wiki/Castlegar_Airport",""
1690,"CYCH","medium_airport","Miramichi Airport",47.007801,-65.449203,108,NA,"CA","CA-NB","Miramichi","yes","CYCH","YCH","","","http://en.wikipedia.org/wiki/Miramichi_Airport","CFB Chatham, RCAF Station Chatham"
1691,"CYCL","medium_airport","Charlo Airport",47.990799,-66.330299,132,NA,"CA","CA-NB","Charlo","yes","CYCL","YCL","","","http://en.wikipedia.org/wiki/Charlo_Airport",""
1692,"CYCN","medium_airport","Cochrane Airport",49.105598449707,-81.0136032104492,861,NA,"CA","CA-ON","Cochrane","no","CYCN","YCN","","","http://en.wikipedia.org/wiki/Cochrane_Airport",""
1693,"CYCO","medium_airport","Kugluktuk Airport",67.816704,-115.143997,74,NA,"CA","CA-NU","Kugluktuk","yes","CYCO","YCO","","","http://en.wikipedia.org/wiki/Kugluktuk_Airport","Copper Mine Airport"
1695,"CYCQ","medium_airport","Chetwynd Airport",55.687198638916,-121.626998901367,2000,NA,"CA","CA-BC","Chetwynd","no","CYCQ","YCQ","","","http://en.wikipedia.org/wiki/Chetwynd_Airport",""
1696,"CYCR","medium_airport","Cross Lake (Charlie Sinclair Memorial) Airport",54.6105995178223,-97.7608032226562,709,NA,"CA","CA-MB","Cross Lake","no","CYCR","YCR","","","http://en.wikipedia.org/wiki/Cross_Lake_(Charlie_Sinclair_Memorial)_Airport",""
1697,"CYCS","medium_airport","Chesterfield Inlet Airport",63.3469009399,-90.7311019897,32,NA,"CA","CA-NU","Chesterfield Inlet","yes","CYCS","YCS","","","http://en.wikipedia.org/wiki/Chesterfield_Inlet_Airport",""
1701,"CYCY","medium_airport","Clyde River Airport",70.4860992432,-68.5167007446,87,NA,"CA","CA-NU","Clyde River","yes","CYCY","YCY","","","http://en.wikipedia.org/wiki/Clyde_River_Airport",""
1703,"CYDA","medium_airport","Dawson City Airport",64.043098449707,-139.128005981445,1215,NA,"CA","CA-YT","Dawson City","yes","CYDA","YDA","","","http://en.wikipedia.org/wiki/Dawson_City_Airport",""
1704,"CYDB","medium_airport","Burwash Airport",61.3711013793945,-139.041000366211,2647,NA,"CA","CA-YT","Burwash","no","CYDB","YDB","","","http://en.wikipedia.org/wiki/Burwash_Airport",""
1706,"CYDF","medium_airport","Deer Lake Airport",49.2108001708984,-57.3913993835449,72,NA,"CA","CA-NL","Deer Lake","yes","CYDF","YDF","","","http://en.wikipedia.org/wiki/Deer_Lake_Airport_(Newfoundland)",""
1709,"CYDM","medium_airport","Ross River Airport",61.9706001282,-132.42300415,2314,NA,"CA","CA-YT","Ross River","no","CYDM","XRR","YDM","","http://en.wikipedia.org/wiki/Ross_River_Airport",""
1710,"CYDN","medium_airport","Dauphin Barker Airport",51.1007995605469,-100.052001953125,999,NA,"CA","CA-MB","Dauphin","yes","CYDN","YDN","","","http://en.wikipedia.org/wiki/Dauphin_(Lt._Col_W.G._(Billy)_Barker_VC_Airport)",""
1711,"CYDO","medium_airport","Dolbeau St Felicien Airport",48.778499603271,-72.375,372,NA,"CA","CA-QC","Dolbeau-St-Félicien","no","CYDO","YDO","","","http://en.wikipedia.org/wiki/Dolbeau-St-F%C3%A9licien_Airport","Dolbeau St Methode"
1712,"CYDP","medium_airport","Nain Airport",56.5491981506348,-61.6803016662598,22,NA,"CA","CA-NL","Nain","yes","CYDP","YDP","","","http://en.wikipedia.org/wiki/Nain_Airport",""
1713,"CYDQ","medium_airport","Dawson Creek Airport",55.7422981262207,-120.182998657227,2148,NA,"CA","CA-BC","Dawson Creek","yes","CYDQ","YDQ","","","http://en.wikipedia.org/wiki/Dawson_Creek_Airport",""
1717,"CYEG","large_airport","Edmonton International Airport",53.3097000122,-113.580001831,2373,NA,"CA","CA-AB","Edmonton","yes","CYEG","YEG","CYEG","http://www.edmontonairports.com/","http://en.wikipedia.org/wiki/Edmonton_International_Airport","YEA"
1718,"CYEK","medium_airport","Arviat Airport",61.0942001343,-94.0708007812,32,NA,"CA","CA-NU","Arviat","yes","CYEK","YEK","","","http://en.wikipedia.org/wiki/Arviat_Airport",""
1719,"CYEL","medium_airport","Elliot Lake Municipal Airport",46.351398468,-82.5614013672,1087,NA,"CA","CA-ON","Elliot Lake","no","CYEL","YEL","","http://cyelont.tripod.com/cyel/","http://en.wikipedia.org/wiki/Elliot_Lake_Municipal_Airport",""
1720,"CYEM","medium_airport","Manitoulin East Municipal Airport",45.8428001403809,-81.8581008911133,869,NA,"CA","CA-ON","Manitowaning","no","CYEM","YEM","","","http://en.wikipedia.org/wiki/Manitowaning/Manitoulin_East_Municipal_Airport",""
1721,"CYEN","medium_airport","Estevan Airport",49.2103004456,-102.966003418,1905,NA,"CA","CA-SK","Estevan","no","CYEN","YEN","","","http://en.wikipedia.org/wiki/Estevan_Regional_Aerodrome","YEN"
1722,"CYER","medium_airport","Fort Severn Airport",56.0189018249512,-87.6761016845703,48,NA,"CA","CA-ON","Fort Severn","yes","CYER","YER","","","http://en.wikipedia.org/wiki/Fort_Severn_Airport",""
1724,"CYET","medium_airport","Edson Airport",53.5788993835,-116.464996338,3043,NA,"CA","CA-AB","Edson","no","CYET","YET","","","http://en.wikipedia.org/wiki/Edson_Airport",""
1726,"CYEV","medium_airport","Inuvik Mike Zubko Airport",68.3041992188,-133.483001709,224,NA,"CA","CA-NT","Inuvik","yes","CYEV","YEV","","","http://en.wikipedia.org/wiki/Inuvik_(Mike_Zubko)_Airport",""
1727,"CYEY","medium_airport","Amos/Magny Airport",48.563903,-78.249702,1068,NA,"CA","CA-QC","Amos","no","CYEY","YEY","","","http://en.wikipedia.org/wiki/Amos/Magny_Airport",""
1728,"CYFA","medium_airport","Fort Albany Airport",52.2014007568359,-81.6968994140625,48,NA,"CA","CA-ON","Fort Albany","yes","CYFA","YFA","","","http://en.wikipedia.org/wiki/Fort_Albany_Airport",""
1729,"CYFB","medium_airport","Iqaluit Airport",63.756402,-68.555801,110,NA,"CA","CA-NU","Iqaluit","yes","CYFB","YFB","","","http://en.wikipedia.org/wiki/Iqaluit_Airport","Frobisher Bay Air Base"
1730,"CYFC","medium_airport","Fredericton Airport",45.8689002990723,-66.5372009277344,68,NA,"CA","CA-NB","Fredericton","yes","CYFC","YFC","","","http://en.wikipedia.org/wiki/Greater_Fredericton_Airport",""
1732,"CYFE","medium_airport","Forestville Airport",48.7461013793945,-69.0971984863281,293,NA,"CA","CA-QC","Forestville","no","CYFE","YFE","","","http://en.wikipedia.org/wiki/Forestville_Airport",""
1733,"CYFH","medium_airport","Fort Hope Airport",51.5619010925293,-87.9077987670898,899,NA,"CA","CA-ON","Fort Hope","yes","CYFH","YFH","","","http://en.wikipedia.org/wiki/Fort_Hope_Airport",""
1734,"CYFJ","medium_airport","La Macaza / Mont-Tremblant International Inc Airport",46.4094009399,-74.7799987793,827,NA,"CA","CA-QC","Rivière Rouge","no","CYFJ","YTM","","http://www.mtia.ca/","http://en.wikipedia.org/wiki/Rivi%C3%A8re_Rouge/Mont-Tremblant_International_Inc_Airport","YFJ, CYTM"
1735,"CYFO","medium_airport","Flin Flon Airport",54.6781005859375,-101.681999206543,997,NA,"CA","CA-MB","Flin Flon","yes","CYFO","YFO","","","http://en.wikipedia.org/wiki/Flin_Flon_Airport",""
1736,"CYFR","medium_airport","Fort Resolution Airport",61.1808013916,-113.690002441,526,NA,"CA","CA-NT","Fort Resolution","no","CYFR","YFR","","","http://en.wikipedia.org/wiki/Fort_Resolution_Airport","YFR"
1737,"CYFS","medium_airport","Fort Simpson Airport",61.7602005004883,-121.236999511719,555,NA,"CA","CA-NT","Fort Simpson","yes","CYFS","YFS","","","http://en.wikipedia.org/wiki/Fort_Simpson_Airport",""
1738,"CYFT","medium_airport","Makkovik Airport",55.0769004821777,-59.1864013671875,234,NA,"CA","CA-NL","Makkovik","yes","CYFT","YMN","","","http://en.wikipedia.org/wiki/Makkovik_Airport","YFT"
1739,"CYGB","medium_airport","Texada Gillies Bay Airport",49.6941986083984,-124.517997741699,326,NA,"CA","CA-BC","Texada","yes","CYGB","YGB","","","http://en.wikipedia.org/wiki/Texada/Gillies_Bay_Airport",""
1742,"CYGH","medium_airport","Fort Good Hope Airport",66.2407989501953,-128.651000976562,268,NA,"CA","CA-NT","Fort Good Hope","yes","CYGH","YGH","","","http://en.wikipedia.org/wiki/Fort_Good_Hope_Airport",""
1743,"CYGK","medium_airport","Kingston Norman Rogers Airport",44.2252998352051,-76.5969009399414,305,NA,"CA","CA-ON","Kingston","yes","CYGK","YGK","","http://www.cityofkingston.ca/residents/transportation/airport/index.asp","http://en.wikipedia.org/wiki/Kingston/Norman_Rogers_Airport",""
1744,"CYGL","medium_airport","La Grande Rivière Airport",53.625301361084,-77.7042007446289,639,NA,"CA","CA-QC","La Grande Rivière","yes","CYGL","YGL","","","http://en.wikipedia.org/wiki/La_Grande_Rivi%C3%A8re_Airport",""
1745,"CYGM","medium_airport","Gimli Industrial Park Airport",50.628101348877,-97.0432968139648,753,NA,"CA","CA-MB","Gimli","no","CYGM","YGM","","","http://en.wikipedia.org/wiki/Gimli_Industrial_Park_Airport",""
1746,"CYGO","medium_airport","Gods Lake Narrows Airport",54.5588989257812,-94.4914016723633,617,NA,"CA","CA-MB","Gods Lake Narrows","yes","CYGO","YGO","","","http://en.wikipedia.org/wiki/Gods_Lake_Narrows_Airport",""
1747,"CYGP","medium_airport","Gaspé (Michel-Pouliot) Airport",48.7752990723,-64.4785995483,112,NA,"CA","CA-QC","Gaspé","yes","CYGP","YGP","","","http://en.wikipedia.org/wiki/Gasp%C3%A9_Airport",""
1748,"CYGQ","medium_airport","Geraldton Greenstone Regional Airport",49.7783012390137,-86.9393997192383,1144,NA,"CA","CA-ON","Geraldton","no","CYGQ","YGQ","","","http://en.wikipedia.org/wiki/Geraldton_(Greenstone_Regional)_Airport",""
1749,"CYGR","medium_airport","Îles-de-la-Madeleine Airport",47.4247016906738,-61.7780990600586,35,NA,"CA","CA-QC","Îles-de-la-Madeleine","yes","CYGR","YGR","","","http://en.wikipedia.org/wiki/%C3%8Eles-de-la-Madeleine_Airport",""
1750,"CYGT","medium_airport","Igloolik Airport",69.3647003174,-81.8161010742,174,NA,"CA","CA-NU","Igloolik","yes","CYGT","YGT","","","http://en.wikipedia.org/wiki/Igloolik_Airport",""
1751,"CYGV","medium_airport","Havre St Pierre Airport",50.2818984985352,-63.611400604248,124,NA,"CA","CA-QC","Havre St-Pierre","no","CYGV","YGV","","","http://en.wikipedia.org/wiki/Havre_St-Pierre_Airport",""
1752,"CYGW","medium_airport","Kuujjuarapik Airport",55.2818984985352,-77.7652969360352,34,NA,"CA","CA-QC","Kuujjuarapik","yes","CYGW","YGW","","","http://en.wikipedia.org/wiki/Kuujjuarapik_Airport",""
1753,"CYGX","medium_airport","Gillam Airport",56.3574981689453,-94.7106018066406,476,NA,"CA","CA-MB","Gillam","yes","CYGX","YGX","","","http://en.wikipedia.org/wiki/Gillam_Airport",""
1754,"CYGZ","medium_airport","Grise Fiord Airport",76.4261016846,-82.9092025757,146,NA,"CA","CA-NU","Grise Fiord","yes","CYGZ","YGZ","","","http://en.wikipedia.org/wiki/Grise_Fiord_Airport",""
1755,"CYHA","medium_airport","Quaqtaq Airport",61.0463981628418,-69.6177978515625,103,NA,"CA","CA-QC","Quaqtaq","yes","CYHA","YQC","","","http://en.wikipedia.org/wiki/Quaqtaq_Airport","YHA"
1757,"CYHD","medium_airport","Dryden Regional Airport",49.831699,-92.744202,1354,NA,"CA","CA-ON","Dryden","yes","CYHD","YHD","","","http://en.wikipedia.org/wiki/Dryden_Regional_Airport",""
1758,"CYHE","medium_airport","Hope Airport",49.3683013916,-121.498001099,128,NA,"CA","CA-BC","Hope","no","CYHE","YHE","","","http://en.wikipedia.org/wiki/Hope_Aerodrome","YHE"
1759,"CYHF","medium_airport","Hearst René Fontaine Municipal Airport",49.7141990661621,-83.6860961914062,827,NA,"CA","CA-ON","Hearst","no","CYHF","YHF","","","http://en.wikipedia.org/wiki/Hearst_(Ren%C3%A9_Fontaine)_Municipal_Airport",""
1760,"CYHH","medium_airport","Nemiscau Airport",51.6911010742188,-76.1355972290039,802,NA,"CA","CA-QC","Nemiscau","yes","CYHH","YNS","","","http://en.wikipedia.org/wiki/Nemiscau_Airport","YHH"
1761,"CYHI","medium_airport","Ulukhaktok Holman Airport",70.7628021240234,-117.805999755859,117,NA,"CA","CA-NT","Ulukhaktok","yes","CYHI","YHI","","","http://en.wikipedia.org/wiki/Ulukhaktok/Holman_Airport",""
1762,"CYHK","medium_airport","Gjoa Haven Airport",68.635597229,-95.8497009277,152,NA,"CA","CA-NU","Gjoa Haven","yes","CYHK","YHK","","","http://en.wikipedia.org/wiki/Gjoa_Haven_Airport",""
1763,"CYHM","medium_airport","John C. Munro Hamilton International Airport",43.1735992432,-79.9349975586,780,NA,"CA","CA-ON","Hamilton","yes","CYHM","YHM","","http://www.flyhi.ca/","http://en.wikipedia.org/wiki/Hamilton/John_C._Munro_International_Airport","Mount Hope Airport"
1764,"CYHN","medium_airport","Hornepayne Municipal Airport",49.1930999755859,-84.758903503418,1099,NA,"CA","CA-ON","Hornepayne","no","CYHN","YHN","","","http://en.wikipedia.org/wiki/Hornepayne_Municipal_Airport",""
1765,"CYHO","medium_airport","Hopedale Airport",55.448299407959,-60.2285995483398,39,NA,"CA","CA-NL","Hopedale","yes","CYHO","YHO","","","http://en.wikipedia.org/wiki/Hopedale_Airport",""
1766,"CYHR","medium_airport","Chevery Airport",50.4688987731934,-59.6366996765137,39,NA,"CA","CA-QC","Chevery","yes","CYHR","YHR","","","http://en.wikipedia.org/wiki/Chevery_Airport",""
1767,"CYHT","medium_airport","Haines Junction Airport",60.7891998291016,-137.546005249023,2150,NA,"CA","CA-YT","Haines Junction","no","CYHT","YHT","","","http://en.wikipedia.org/wiki/Haines_Junction_Airport",""
1768,"CYHU","medium_airport","Montréal / Saint-Hubert Airport",45.5175018311,-73.4169006348,90,NA,"CA","CA-QC","Montréal","yes","CYHU","YHU","","http://www.dashl.ca/","http://en.wikipedia.org/wiki/Montr%C3%A9al/St-Hubert_Airport",""
1769,"CYHY","medium_airport","Hay River / Merlyn Carter Airport",60.8396987915,-115.782997131,541,NA,"CA","CA-NT","Hay River","yes","CYHY","YHY","","","http://en.wikipedia.org/wiki/Hay_River_Airport",""
1770,"CYHZ","large_airport","Halifax / Stanfield International Airport",44.8807983398,-63.5085983276,477,NA,"CA","CA-NS","Halifax","yes","CYHZ","YHZ","","http://www.hiaa.ca/","http://en.wikipedia.org/wiki/Halifax_International_Airport","Robert L. Stanfield International Airport"
1771,"CYIB","medium_airport","Atikokan Municipal Airport",48.7738990784,-91.6386032104,1408,NA,"CA","CA-ON","Atikokan","no","CYIB","YIB","","http://www.atikokaninfo.com/community/transportation/airport/","http://en.wikipedia.org/wiki/Atikokan_Municipal_Airport",""
1772,"CYID","medium_airport","Digby / Annapolis Regional Airport",44.5458450365,-65.7854247093,499,NA,"CA","CA-NS","Digby","no","CYID","YDG","","","http://en.wikipedia.org/wiki/Digby_Airport","YID"
1773,"CYIF","medium_airport","St Augustin Airport",51.2117004395,-58.6582984924,20,NA,"CA","CA-QC","St-Augustin","no","CYIF","YIF","","","http://en.wikipedia.org/wiki/St-Augustin_Airport","Pakuashipi Airport"
1774,"CYIK","medium_airport","Ivujivik Airport",62.4173011779785,-77.9253005981445,126,NA,"CA","CA-QC","Ivujivik","yes","CYIK","YIK","","","http://en.wikipedia.org/wiki/Ivujivik_Airport",""
1775,"CYIO","medium_airport","Pond Inlet Airport",72.6832962036,-77.9666976929,181,NA,"CA","CA-NU","Pond Inlet","yes","CYIO","YIO","","","http://en.wikipedia.org/wiki/Pond_Inlet_Airport",""
1776,"CYIV","medium_airport","Island Lake Airport",53.8572006225586,-94.6536026000977,770,NA,"CA","CA-MB","Island Lake","yes","CYIV","YIV","","","http://en.wikipedia.org/wiki/Island_Lake_Airport",""
1778,"CYJF","medium_airport","Fort Liard Airport",60.2358016968,-123.46900177,708,NA,"CA","CA-NT","Fort Liard","no","CYJF","YJF","","","http://en.wikipedia.org/wiki/Fort_Liard_Airport","YJF"
1780,"CYJN","medium_airport","St Jean Airport",45.2943992614746,-73.2810974121094,136,NA,"CA","CA-QC","St Jean","no","CYJN","YJN","","","http://en.wikipedia.org/wiki/St-Jean_Airport",""
1783,"CYJT","medium_airport","Stephenville Airport",48.5442008972168,-58.5499992370605,84,NA,"CA","CA-NL","Stephenville","yes","CYJT","YJT","","","http://en.wikipedia.org/wiki/Stephenville_Airport",""
1784,"CYKA","medium_airport","Kamloops Airport",50.7022018433,-120.444000244,1133,NA,"CA","CA-BC","Kamloops","yes","CYKA","YKA","","","http://en.wikipedia.org/wiki/Kamloops_Airport",""
1786,"CYKD","medium_airport","Aklavik/Freddie Carmichael Airport",68.223297,-135.00599,23,NA,"CA","CA-NT","Aklavik","yes","CYKD","LAK","","","http://en.wikipedia.org/wiki/Aklavik_Airport","YKD"
1787,"CYKF","medium_airport","Waterloo Airport",43.4608001709,-80.3786010742,1055,NA,"CA","CA-ON","Kitchener","yes","CYKF","YKF","","http://www.waterlooairport.ca/","http://en.wikipedia.org/wiki/Region_of_Waterloo_International_Airport","Kitchener, Cambridge, YFK"
1788,"CYKG","medium_airport","Kangiqsujuaq (Wakeham Bay) Airport",61.5886001587,-71.929397583,501,NA,"CA","CA-QC","Kangiqsujuaq","yes","CYKG","YWB","","","http://en.wikipedia.org/wiki/Kangiqsujuaq_(Wakeham_Bay)_Airport","YKG"
1789,"CYKJ","medium_airport","Key Lake Airport",57.2560997009277,-105.61799621582,1679,NA,"CA","CA-SK","Key Lake","no","CYKJ","YKJ","","","http://en.wikipedia.org/wiki/Key_Lake_Airport",""
1790,"CYKL","medium_airport","Schefferville Airport",54.8053016662598,-66.8052978515625,1709,NA,"CA","CA-QC","Schefferville","yes","CYKL","YKL","","","http://en.wikipedia.org/wiki/Schefferville_Airport",""
1791,"CYKO","medium_airport","Akulivik Airport",60.8185997009277,-78.1485977172852,75,NA,"CA","CA-QC","Akulivik","yes","CYKO","AKV","","","http://en.wikipedia.org/wiki/Akulivik_Airport","YKO"
1792,"CYKQ","medium_airport","Waskaganish Airport",51.4733009338379,-78.75830078125,80,NA,"CA","CA-QC","Waskaganish","yes","CYKQ","YKQ","","","http://en.wikipedia.org/wiki/Waskaganish_Airport",""
1793,"CYKX","medium_airport","Kirkland Lake Airport",48.2103004455566,-79.9813995361328,1157,NA,"CA","CA-ON","Kirkland Lake","no","CYKX","YKX","","","http://en.wikipedia.org/wiki/Kirkland_Lake_Airport",""
1794,"CYKY","medium_airport","Kindersley Airport",51.5175018311,-109.180999756,2277,NA,"CA","CA-SK","Kindersley","no","CYKY","YKY","YKY","","http://en.wikipedia.org/wiki/Kindersley_Airport","YKY"
1795,"CYKZ","medium_airport","Buttonville Municipal Airport",43.8622016906738,-79.370002746582,650,NA,"CA","CA-ON","Toronto","no","CYKZ","YKZ","","http://www.torontoairways.com/","http://en.wikipedia.org/wiki/Toronto/Buttonville_Municipal_Airport","YTO"
1796,"CYLA","medium_airport","Aupaluk Airport",59.2966995239258,-69.5997009277344,119,NA,"CA","CA-QC","Aupaluk","yes","CYLA","YPJ","","","http://en.wikipedia.org/wiki/Aupaluk_Airport","YLA"
1798,"CYLC","medium_airport","Kimmirut Airport",62.8499984741,-69.8833007812,175,NA,"CA","CA-NU","Kimmirut","yes","CYLC","YLC","","","http://en.wikipedia.org/wiki/Kimmirut_Airport",""
1799,"CYLD","medium_airport","Chapleau Airport",47.8199996948242,-83.3467025756836,1470,NA,"CA","CA-ON","Chapleau","no","CYLD","YLD","","","http://en.wikipedia.org/wiki/Chapleau_Airport",""
1800,"CYLH","medium_airport","Lansdowne House Airport",52.1955986022949,-87.934196472168,834,NA,"CA","CA-ON","Lansdowne House","yes","CYLH","YLH","","","http://en.wikipedia.org/wiki/Lansdowne_House_Airport",""
1801,"CYLJ","medium_airport","Meadow Lake Airport",54.125301361084,-108.523002624512,1576,NA,"CA","CA-SK","Meadow Lake","no","CYLJ","YLJ","","","http://en.wikipedia.org/wiki/Meadow_Lake_Airport",""
1802,"CYLK","medium_airport","Lutselk'e Airport",62.418303,-110.681998,596,NA,"CA","CA-NT","Lutselk'e","yes","CYLK","YSG","","","http://en.wikipedia.org/wiki/Lutselk'e_Airport","YLK, EL3, Snowdrift Airport"
1803,"CYLL","medium_airport","Lloydminster Airport",53.3092002868652,-110.072998046875,2193,NA,"CA","CA-AB","Lloydminster","yes","CYLL","YLL","","","http://en.wikipedia.org/wiki/Lloydminster_Airport",""
1805,"CYLR","medium_airport","Leaf Rapids Airport",56.5133018493652,-99.9852981567383,959,NA,"CA","CA-MB","Leaf Rapids","no","CYLR","YLR","","","http://en.wikipedia.org/wiki/Leaf_Rapids_Airport",""
1806,"CYLT","medium_airport","Alert Airport",82.5177993774,-62.2806015015,100,NA,"CA","CA-NU","Alert","no","CYLT","YLT","","","http://en.wikipedia.org/wiki/Alert_Airport","YLT"
1807,"CYLU","medium_airport","Kangiqsualujjuaq (Georges River) Airport",58.7113990783691,-65.9927978515625,215,NA,"CA","CA-QC","Kangiqsualujjuaq","yes","CYLU","XGR","","","http://en.wikipedia.org/wiki/Kangiqsualujjuaq_(Georges_River)_Airport","YLU"
1808,"CYLW","medium_airport","Kelowna International Airport",49.9561004639,-119.377998352,1421,NA,"CA","CA-BC","Kelowna","yes","CYLW","YLW","","http://www.kelowna.ca/CM/Page68.aspx","http://en.wikipedia.org/wiki/Kelowna_International_Airport","Kelowna, Okanagan"
1809,"CYMA","medium_airport","Mayo Airport",63.6164016723633,-135.86799621582,1653,NA,"CA","CA-YT","Mayo","no","CYMA","YMA","","","http://en.wikipedia.org/wiki/Mayo_Airport",""
1810,"CYME","medium_airport","Matane Airport",48.8568992614746,-67.4533004760742,102,NA,"CA","CA-QC","Matane","no","CYME","YME","","","http://en.wikipedia.org/wiki/Matane_Airport",""
1811,"CYMG","medium_airport","Manitouwadge Airport",49.0839004516602,-85.8606033325195,1198,NA,"CA","CA-ON","Manitouwadge","no","CYMG","YMG","","","http://en.wikipedia.org/wiki/Manitouwadge_Airport",""
1812,"CYMH","medium_airport","Mary's Harbour Airport",52.3027992248535,-55.8471984863281,38,NA,"CA","CA-NL","Mary's Harbour","yes","CYMH","YMH","","","http://en.wikipedia.org/wiki/Mary's_Harbour_Airport",""
1813,"CYMJ","medium_airport","Moose Jaw Air Vice Marshal C. M. McEwen Airport",50.3302993774414,-105.55899810791,1892,NA,"CA","CA-SK","Moose Jaw","no","CYMJ","YMJ","","","http://en.wikipedia.org/wiki/Moose_Jaw/Air_Vice_Marshal_C.M._McEwen_Airport","CFB Moose Jaw"
1814,"CYML","medium_airport","Charlevoix Airport",47.5974998474121,-70.2238998413086,977,NA,"CA","CA-QC","Charlevoix","no","CYML","YML","","","http://en.wikipedia.org/wiki/Charlevoix_Airport",""
1815,"CYMM","medium_airport","Fort McMurray Airport",56.653301239,-111.222000122,1211,NA,"CA","CA-AB","Fort McMurray","yes","CYMM","YMM","","","http://en.wikipedia.org/wiki/Fort_McMurray_Airport",""
1816,"CYMO","medium_airport","Moosonee Airport",51.2910995483398,-80.6078033447266,30,NA,"CA","CA-ON","Moosonee","yes","CYMO","YMO","","","http://en.wikipedia.org/wiki/Moosonee_Airport",""
1817,"CYMT","medium_airport","Chapais Airport",49.771900177002,-74.5280990600586,1270,NA,"CA","CA-QC","Chibougamau","yes","CYMT","YMT","","","http://en.wikipedia.org/wiki/Chibougamau/Chapais_Airport",""
1818,"CYMU","medium_airport","Umiujaq Airport",56.5360984802246,-76.5183029174805,250,NA,"CA","CA-QC","Umiujaq","yes","CYMU","YUD","","","http://en.wikipedia.org/wiki/Umiujaq_Airport","YMU"
1820,"CYMX","medium_airport","Montreal International (Mirabel) Airport",45.679501,-74.038696,270,NA,"CA","CA-QC","Montréal","no","CYMX","YMX","","","http://en.wikipedia.org/wiki/Montr%C3%A9al-Mirabel_International_Airport","YMQ"
1822,"CYNA","medium_airport","Natashquan Airport",50.189998626709,-61.7891998291016,39,NA,"CA","CA-QC","Natashquan","yes","CYNA","YNA","","","http://en.wikipedia.org/wiki/Natashquan_Airport",""
1823,"CYNC","medium_airport","Wemindji Airport",53.0106010437012,-78.8311004638672,66,NA,"CA","CA-QC","Wemindji","yes","CYNC","YNC","","","http://en.wikipedia.org/wiki/Wemindji_Airport",""
1824,"CYND","medium_airport","Ottawa / Gatineau Airport",45.5217018127,-75.5635986328,211,NA,"CA","CA-QC","Gatineau","no","CYND","YND","CYND","http://www.ego-airport.ca/english/propos_ego/","http://en.wikipedia.org/wiki/Ottawa-Gatineau_Airport","YND"
1825,"CYNE","medium_airport","Norway House Airport",53.9583015441895,-97.8442001342773,734,NA,"CA","CA-MB","Norway House","yes","CYNE","YNE","","","http://en.wikipedia.org/wiki/Norway_House_Airport",""
1828,"CYNL","medium_airport","Points North Landing Airport",58.2766990661621,-104.082000732422,1605,NA,"CA","CA-SK","Points North Landing","yes","CYNL","YNL","","","http://en.wikipedia.org/wiki/Points_North_Landing_Airport",""
1829,"CYNM","medium_airport","Matagami Airport",49.7616996765137,-77.8028030395508,918,NA,"CA","CA-QC","Matagami","no","CYNM","YNM","","","http://en.wikipedia.org/wiki/Matagami_Airport",""
1832,"CYOA","medium_airport","Ekati Airport",64.6988983154,-110.614997864,1536,NA,"CA","CA-NT","Ekati","no","CYOA","YOA","","","http://en.wikipedia.org/wiki/Ekati_Airport","YOA"
1833,"CYOC","medium_airport","Old Crow Airport",67.5706024169922,-139.839004516602,824,NA,"CA","CA-YT","Old Crow","yes","CYOC","YOC","","","http://en.wikipedia.org/wiki/Old_Crow_Airport",""
1834,"CYOD","medium_airport","CFB Cold Lake",54.4049987792969,-110.278999328613,1775,NA,"CA","CA-AB","Cold Lake","no","CYOD","YOD","","","http://en.wikipedia.org/wiki/CFB_Cold_Lake",""
1835,"CYOH","medium_airport","Oxford House Airport",54.9333000183105,-95.2789001464844,663,NA,"CA","CA-MB","Oxford House","yes","CYOH","YOH","","","http://en.wikipedia.org/wiki/Oxford_House_Airport",""
1836,"CYOJ","medium_airport","High Level Airport",58.6213989257812,-117.165000915527,1110,NA,"CA","CA-AB","High Level","yes","CYOJ","YOJ","","","http://en.wikipedia.org/wiki/High_Level_Airport",""
1837,"CYOO","medium_airport","Toronto/Oshawa Executive Airport",43.922798,-78.894997,460,NA,"CA","CA-ON","Oshawa","no","CYOO","YOO","CYOO","http://www.oshawa-airport.com/","http://en.wikipedia.org/wiki/Oshawa_Airport",""
1838,"CYOP","medium_airport","Rainbow Lake Airport",58.4914016723633,-119.407997131348,1759,NA,"CA","CA-AB","Rainbow Lake","yes","CYOP","YOP","","","http://en.wikipedia.org/wiki/Rainbow_Lake_Airport",""
1839,"CYOS","medium_airport","Owen Sound / Billy Bishop Regional Airport",44.5903015137,-80.8375015259,1007,NA,"CA","CA-ON","Owen Sound","no","CYOS","YOS","","","http://en.wikipedia.org/wiki/Owen_Sound/Billy_Bishop_Regional_Airport","YOS"
1840,"CYOW","large_airport","Ottawa Macdonald-Cartier International Airport",45.3224983215332,-75.6691970825195,374,NA,"CA","CA-ON","Ottawa","yes","CYOW","YOW","YOW","http://www.ottawa-airport.ca/","http://en.wikipedia.org/wiki/Ottawa_Macdonald-Cartier_International_Airport","Uplands, UUP, CUUP"
1842,"CYPA","medium_airport","Prince Albert Glass Field",53.2141990662,-105.672996521,1405,NA,"CA","CA-SK","Prince Albert","yes","CYPA","YPA","","","http://en.wikipedia.org/wiki/Prince_Albert_(Glass_Field)_Airport",""
1843,"CYPC","medium_airport","Paulatuk (Nora Aliqatchialuk Ruben) Airport",69.3608381154,-124.075469971,15,NA,"CA","CA-NT","Paulatuk","yes","CYPC","YPC","","","http://en.wikipedia.org/wiki/Paulatuk_Airport",""
1844,"CYPD","medium_airport","Port Hawkesbury Airport",45.6567001343,-61.3680992126,377,NA,"CA","CA-NS","Port Hawkesbury","no","CYPD","YPS","","http://www.porthawkesburyairport.com/","http://en.wikipedia.org/wiki/Port_Hawkesbury_Airport","YPD"
1845,"CYPE","medium_airport","Peace River Airport",56.226898,-117.446999,1873,NA,"CA","CA-AB","Peace River","yes","CYPE","YPE","","","http://en.wikipedia.org/wiki/Peace_River_Airport",""
1846,"CYPG","medium_airport","Southport Airport",49.903099,-98.273817,885,NA,"CA","CA-MB","Portage la Prairie","no","CYPG","YPG","","http://southport.ca/","http://en.wikipedia.org/wiki/Portage_La_Prairie/Southport_Airport",""
1847,"CYPH","medium_airport","Inukjuak Airport",58.4719009399414,-78.0768966674805,83,NA,"CA","CA-QC","Inukjuak","yes","CYPH","YPH","","","http://en.wikipedia.org/wiki/Inukjuak_Airport",""
1849,"CYPL","medium_airport","Pickle Lake Airport",51.4463996887207,-90.2142028808594,1267,NA,"CA","CA-ON","Pickle Lake","yes","CYPL","YPL","","","http://en.wikipedia.org/wiki/Pickle_Lake_Airport",""
1850,"CYPM","medium_airport","Pikangikum Airport",51.8196983337402,-93.9732971191406,1114,NA,"CA","CA-ON","Pikangikum","yes","CYPM","YPM","","","http://en.wikipedia.org/wiki/Pikangikum_Airport",""
1851,"CYPN","medium_airport","Port Menier Airport",49.8363990783691,-64.2885971069336,167,NA,"CA","CA-QC","Port-Menier","no","CYPN","YPN","","","http://en.wikipedia.org/wiki/Port-Menier_Airport",""
1852,"CYPO","medium_airport","Peawanuck Airport",54.9880981445312,-85.4432983398438,173,NA,"CA","CA-ON","Peawanuck","yes","CYPO","YPO","","","http://en.wikipedia.org/wiki/Peawanuck_Airport",""
1854,"CYPQ","medium_airport","Peterborough Airport",44.2299995422363,-78.3632965087891,628,NA,"CA","CA-ON","Peterborough","no","CYPQ","YPQ","","","http://en.wikipedia.org/wiki/Peterborough_Airport",""
1855,"CYPR","medium_airport","Prince Rupert Airport",54.2860984802,-130.445007324,116,NA,"CA","CA-BC","Prince Rupert","yes","CYPR","YPR","","http://www.ypr.ca/","http://en.wikipedia.org/wiki/Prince_Rupert_Airport",""
1859,"CYPW","medium_airport","Powell River Airport",49.8342018127441,-124.5,425,NA,"CA","CA-BC","Powell River","yes","CYPW","YPW","","","http://en.wikipedia.org/wiki/Powell_River_Airport",""
1860,"CYPX","medium_airport","Puvirnituq Airport",60.0505981445312,-77.2869033813477,74,NA,"CA","CA-QC","Puvirnituq","no","CYPX","YPX","","","http://en.wikipedia.org/wiki/Puvirnituq_Airport",""
1861,"CYPY","medium_airport","Fort Chipewyan Airport",58.7672004699707,-111.116996765137,761,NA,"CA","CA-AB","Fort Chipewyan","yes","CYPY","YPY","","","http://en.wikipedia.org/wiki/Fort_Chipewyan_Airport",""
1863,"CYQA","medium_airport","Muskoka Airport",44.9747009277344,-79.3032989501953,925,NA,"CA","CA-ON","Muskoka","no","CYQA","YQA","","","http://en.wikipedia.org/wiki/Muskoka_Airport",""
1864,"CYQB","medium_airport","Quebec Jean Lesage International Airport",46.7911,-71.393303,244,NA,"CA","CA-QC","Quebec","yes","CYQB","YQB","YQB","http://www.aeroportdequebec.com/","http://en.wikipedia.org/wiki/Qu%C3%A9bec/Jean_Lesage_International_Airport","Quebec City"
1865,"CYQD","medium_airport","The Pas Airport",53.9714012145996,-101.091003417969,887,NA,"CA","CA-MB","The Pas","yes","CYQD","YQD","","","http://en.wikipedia.org/wiki/The_Pas_Airport",""
1866,"CYQF","medium_airport","Red Deer Regional Airport",52.182201385498,-113.893997192383,2968,NA,"CA","CA-AB","Red Deer","no","CYQF","YQF","","","http://en.wikipedia.org/wiki/Red_Deer_Regional_Airport",""
1867,"CYQG","medium_airport","Windsor Airport",42.2756004333496,-82.9555969238281,622,NA,"CA","CA-ON","Windsor","yes","CYQG","YQG","","","http://en.wikipedia.org/wiki/Windsor_Airport",""
1868,"CYQH","medium_airport","Watson Lake Airport",60.1164016723633,-128.822006225586,2255,NA,"CA","CA-YT","Watson Lake","no","CYQH","YQH","","","http://en.wikipedia.org/wiki/Watson_Lake_Airport",""
1869,"CYQI","medium_airport","Yarmouth Airport",43.8269004821777,-66.0880966186523,141,NA,"CA","CA-NS","Yarmouth","no","CYQI","YQI","","","http://en.wikipedia.org/wiki/Yarmouth_Airport",""
1870,"CYQK","medium_airport","Kenora Airport",49.7882995605469,-94.3630981445312,1332,NA,"CA","CA-ON","Kenora","yes","CYQK","YQK","","","http://en.wikipedia.org/wiki/Kenora_Airport",""
1871,"CYQL","medium_airport","Lethbridge County Airport",49.6302986145,-112.800003052,3048,NA,"CA","CA-AB","Lethbridge","yes","CYQL","YQL","","","http://en.wikipedia.org/wiki/Lethbridge_County_Airport","Kenyon Field"
1872,"CYQM","medium_airport","Greater Moncton International Airport",46.1122016906738,-64.678596496582,232,NA,"CA","CA-NB","Moncton","yes","CYQM","YQM","","","http://en.wikipedia.org/wiki/Greater_Moncton_International_Airport",""
1873,"CYQN","medium_airport","Nakina Airport",50.1828002929688,-86.696403503418,1057,NA,"CA","CA-ON","Nakina","yes","CYQN","YQN","","","http://en.wikipedia.org/wiki/Nakina_Airport",""
1874,"CYQQ","medium_airport","Comox Airport",49.7108001708984,-124.887001037598,84,NA,"CA","CA-BC","Comox","yes","CYQQ","YQQ","","","http://en.wikipedia.org/wiki/CFB_Comox","CFB Comox"
1875,"CYQR","medium_airport","Regina International Airport",50.4319000244141,-104.666000366211,1894,NA,"CA","CA-SK","Regina","yes","CYQR","YQR","","","http://en.wikipedia.org/wiki/Regina_International_Airport","YQR, Roland J. Groome International"
1876,"CYQS","medium_airport","St Thomas Municipal Airport",42.7700004577637,-81.1108016967773,778,NA,"CA","CA-ON","St Thomas","no","CYQS","YQS","","","http://en.wikipedia.org/wiki/St._Thomas_Airport",""
1877,"CYQT","medium_airport","Thunder Bay Airport",48.371898651123,-89.3238983154297,653,NA,"CA","CA-ON","Thunder Bay","yes","CYQT","YQT","","","http://en.wikipedia.org/wiki/Thunder_Bay_International_Airport",""
1878,"CYQU","medium_airport","Grande Prairie Airport",55.1796989441,-118.885002136,2195,NA,"CA","CA-AB","Grande Prairie","yes","CYQU","YQU","","http://www.grandeprairieairport.com/","http://en.wikipedia.org/wiki/Grande_Prairie_Airport",""
1879,"CYQV","medium_airport","Yorkton Municipal Airport",51.2647018432617,-102.46199798584,1635,NA,"CA","CA-SK","Yorkton","no","CYQV","YQV","","","http://en.wikipedia.org/wiki/Yorkton_Municipal_Airport",""
1880,"CYQW","medium_airport","North Battleford Airport",52.7691993713379,-108.244003295898,1799,NA,"CA","CA-SK","North Battleford","no","CYQW","YQW","","","http://en.wikipedia.org/wiki/North_Battleford_(Cameron_McIntosh)_Airport",""
1881,"CYQX","medium_airport","Gander International Airport",48.9369010925293,-54.5680999755859,496,NA,"CA","CA-NL","Gander","yes","CYQX","YQX","","","http://en.wikipedia.org/wiki/Gander_International_Airport","CFB Gander"
1882,"CYQY","medium_airport","Sydney / J.A. Douglas McCurdy Airport",46.1614,-60.047798,203,NA,"CA","CA-NS","Sydney","yes","CYQY","YQY","","http://www.sydneyairport.ca/","https://en.wikipedia.org/wiki/Sydney/J.A._Douglas_McCurdy_Airport",""
1883,"CYQZ","medium_airport","Quesnel Airport",53.0261001586914,-122.51000213623,1789,NA,"CA","CA-BC","Quesnel","yes","CYQZ","YQZ","","","http://en.wikipedia.org/wiki/Quesnel_Airport",""
1884,"CYRA","medium_airport","Rae Lakes Airport",64.116096496582,-117.309997558594,723,NA,"CA","CA-NT","Gamètì","yes","CYRA","YRA","","","http://en.wikipedia.org/wiki/Gam%C3%A8t%C3%AC/Rae_Lakes_Airport",""
1885,"CYRB","medium_airport","Resolute Bay Airport",74.7169036865,-94.9693984985,215,NA,"CA","CA-NU","Resolute Bay","yes","CYRB","YRB","","","http://en.wikipedia.org/wiki/Resolute_Bay_Airport",""
1887,"CYRI","medium_airport","Rivière-du-Loup Airport",47.7644004821777,-69.5847015380859,427,NA,"CA","CA-QC","Rivière-du-Loup","no","CYRI","YRI","","http://www.ville.riviere-du-loup.qc.ca/anglais/aeroport.php","http://en.wikipedia.org/wiki/Rivi%C3%A8re-du-Loup_Airport",""
1888,"CYRJ","medium_airport","Roberval Airport",48.5200004577637,-72.2656021118164,586,NA,"CA","CA-QC","Roberval","yes","CYRJ","YRJ","","","http://en.wikipedia.org/wiki/Roberval_Airport",""
1889,"CYRL","medium_airport","Red Lake Airport",51.0668983459473,-93.793098449707,1265,NA,"CA","CA-ON","Red Lake","yes","CYRL","YRL","","","http://en.wikipedia.org/wiki/Red_Lake_Airport",""
1891,"CYRO","medium_airport","Ottawa / Rockcliffe Airport",45.4603004456,-75.6461029053,188,NA,"CA","CA-ON","Ottawa","no","CYRO","YRO","CYRO","http://www.rfc.ca/","http://en.wikipedia.org/wiki/Ottawa/Rockcliffe_Airport","YRO"
1893,"CYRQ","medium_airport","Trois-Rivières Airport",46.3527984619141,-72.6793975830078,199,NA,"CA","CA-QC","Trois-Rivières","no","CYRQ","YRQ","","","http://en.wikipedia.org/wiki/Trois-Rivi%C3%A8res_Airport",""
1894,"CYRS","medium_airport","Red Sucker Lake Airport",54.1671981811523,-93.5571975708008,729,NA,"CA","CA-MB","Red Sucker Lake","no","CYRS","YRS","","","http://en.wikipedia.org/wiki/Red_Sucker_Lake_Airport",""
1895,"CYRT","medium_airport","Rankin Inlet Airport",62.8114013672,-92.1157989502,94,NA,"CA","CA-NU","Rankin Inlet","yes","CYRT","YRT","","","http://en.wikipedia.org/wiki/Rankin_Inlet_Airport",""
1896,"CYRV","medium_airport","Revelstoke Airport",50.9667015076,-118.182998657,1459,NA,"CA","CA-BC","Revelstoke","no","CYRV","YRV","","","http://en.wikipedia.org/wiki/Revelstoke_Airport","YRV"
1897,"CYSB","medium_airport","Sudbury Airport",46.625,-80.7988967895508,1141,NA,"CA","CA-ON","Sudbury","yes","CYSB","YSB","","","http://en.wikipedia.org/wiki/Sudbury_Airport",""
1898,"CYSC","medium_airport","Sherbrooke Airport",45.4385986328125,-71.6913986206055,792,NA,"CA","CA-QC","Sherbrooke","no","CYSC","YSC","","","http://en.wikipedia.org/wiki/Sherbrooke_Airport",""
1901,"CYSF","medium_airport","Stony Rapids Airport",59.250301361084,-105.841003417969,805,NA,"CA","CA-SK","Stony Rapids","yes","CYSF","YSF","","","http://en.wikipedia.org/wiki/Stony_Rapids_Airport",""
1903,"CYSH","medium_airport","Smiths Falls-Montague (Russ Beach) Airport",44.94580078125,-75.9405975341797,416,NA,"CA","CA-ON","Smiths Falls","no","CYSH","YSH","","http://www.smithsfallsflyingclub.com/","http://en.wikipedia.org/wiki/Smiths_Falls-Montague_Airport","Smith Falls"
1904,"CYSJ","medium_airport","Saint John Airport",45.3161010742188,-65.8902969360352,357,NA,"CA","CA-NB","Saint John","yes","CYSJ","YSJ","","","http://en.wikipedia.org/wiki/Saint_John_Airport",""
1905,"CYSK","medium_airport","Sanikiluaq Airport",56.5377998352,-79.2466964722,104,NA,"CA","CA-NU","Sanikiluaq","yes","CYSK","YSK","","","http://en.wikipedia.org/wiki/Sanikiluaq_Airport",""
1906,"CYSL","medium_airport","St Leonard Airport",47.1575012207031,-67.8347015380859,793,NA,"CA","CA-NB","St Leonard","no","CYSL","YSL","","","http://en.wikipedia.org/wiki/St._Leonard_Airport",""
1907,"CYSM","medium_airport","Fort Smith Airport",60.0203018188477,-111.96199798584,671,NA,"CA","CA-NT","Fort Smith","yes","CYSM","YSM","","","http://en.wikipedia.org/wiki/Fort_Smith_Airport",""
1908,"CYSN","medium_airport","Niagara District Airport",43.1916999816895,-79.1716995239258,321,NA,"CA","CA-ON","St Catharines","no","CYSN","YCM","","","http://en.wikipedia.org/wiki/St._Catharines/Niagara_District_Airport","YSN"
1909,"CYSP","medium_airport","Marathon Airport",48.755298614502,-86.3443984985352,1035,NA,"CA","CA-ON","Marathon","no","CYSP","YSP","","","http://en.wikipedia.org/wiki/Marathon_Airport_(Canada)",""
1912,"CYST","medium_airport","St. Theresa Point Airport",53.8456001281738,-94.8518981933594,773,NA,"CA","CA-MB","St. Theresa Point","yes","CYST","YST","","","http://en.wikipedia.org/wiki/St._Theresa_Point_Airport",""
1913,"CYSU","medium_airport","Summerside Airport",46.440601348877,-63.8335990905762,56,NA,"CA","CA-PE","Summerside","no","CYSU","YSU","","","http://en.wikipedia.org/wiki/Summerside_Airport","PEI"
1915,"CYSY","medium_airport","Sachs Harbour (David Nasogaluak Jr. Saaryuaq) Airport",71.9938964844,-125.242996216,282,NA,"CA","CA-NT","Sachs Harbour","yes","CYSY","YSY","","","http://en.wikipedia.org/wiki/Sachs_Harbour_Airport",""
1917,"CYTA","medium_airport","Pembroke Airport",45.8643989562988,-77.2517013549805,529,NA,"CA","CA-ON","Pembroke","no","CYTA","YTA","","http://www.flycyta.ca/","http://en.wikipedia.org/wiki/Pembroke_Airport",""
1918,"CYTE","medium_airport","Cape Dorset Airport",64.2300033569,-76.5267028809,164,NA,"CA","CA-NU","Cape Dorset","yes","CYTE","YTE","","","http://en.wikipedia.org/wiki/Cape_Dorset_Airport",""
1919,"CYTF","medium_airport","Alma Airport",48.5088996887,-71.6418991089,445,NA,"CA","CA-QC","Alma","yes","CYTF","YTF","","","http://en.wikipedia.org/wiki/Alma_Airport",""
1920,"CYTH","medium_airport","Thompson Airport",55.8011016845703,-97.8641967773438,729,NA,"CA","CA-MB","Thompson","yes","CYTH","YTH","","","http://en.wikipedia.org/wiki/Thompson_Airport",""
1921,"CYTL","medium_airport","Big Trout Lake Airport",53.817798614502,-89.8968963623047,729,NA,"CA","CA-ON","Big Trout Lake","yes","CYTL","YTL","","","http://en.wikipedia.org/wiki/Big_Trout_Lake_Airport",""
1923,"CYTQ","medium_airport","Tasiujaq Airport",58.6678009033203,-69.9558029174805,122,NA,"CA","CA-QC","Tasiujaq","no","CYTQ","YTQ","","","http://en.wikipedia.org/wiki/Tasiujaq_Airport",""
1924,"CYTR","medium_airport","CFB Trenton",44.1189002990723,-77.5280990600586,283,NA,"CA","CA-ON","Trenton","no","CYTR","YTR","","","http://en.wikipedia.org/wiki/CFB_Trenton",""
1925,"CYTS","medium_airport","Timmins/Victor M. Power",48.5696983337,-81.376701355,967,NA,"CA","CA-ON","Timmins","yes","CYTS","YTS","","http://portal.timmins.ca/portal/en/timmins/residents/airport","http://en.wikipedia.org/wiki/Timmins_Airport","Timmins Victor M. Power Airport"
1926,"CYTZ","medium_airport","Billy Bishop Toronto City Centre Airport",43.627499,-79.396202,252,NA,"CA","CA-ON","Toronto","yes","CYTZ","YTZ","","http://www.torontoport.com/airport.aspx","http://en.wikipedia.org/wiki/Toronto_City_Centre_Airport","YTO, Toronto Island Airport"
1927,"CYUB","medium_airport","Tuktoyaktuk Airport",69.4332962036133,-133.026000976562,15,NA,"CA","CA-NT","Tuktoyaktuk","yes","CYUB","YUB","","","http://en.wikipedia.org/wiki/Tuktoyaktuk_Airport",""
1928,"CYUL","large_airport","Montreal / Pierre Elliott Trudeau International Airport",45.4706001282,-73.7407989502,118,NA,"CA","CA-QC","Montréal","yes","CYUL","YUL","YUL","http://www.admtl.com/passager/Home.aspx","http://en.wikipedia.org/wiki/Montr%C3%A9al-Pierre_Elliott_Trudeau_International_Airport","YMQ, Dorval Airport"
1929,"CYUT","medium_airport","Repulse Bay Airport",66.5214004517,-86.2247009277,80,NA,"CA","CA-NU","Repulse Bay","yes","CYUT","YUT","","","http://en.wikipedia.org/wiki/Repulse_Bay_Airport",""
1930,"CYUX","medium_airport","Hall Beach Airport",68.7761001587,-81.2425,30,NA,"CA","CA-NU","Hall Beach","yes","CYUX","YUX","","","http://en.wikipedia.org/wiki/Hall_Beach_Airport",""
1931,"CYUY","medium_airport","Rouyn Noranda Airport",48.2061004638672,-78.8356018066406,988,NA,"CA","CA-QC","Rouyn-Noranda","yes","CYUY","YUY","","","http://en.wikipedia.org/wiki/Rouyn-Noranda_Airport",""
1932,"CYVB","medium_airport","Bonaventure Airport",48.0710983276367,-65.4602966308594,123,NA,"CA","CA-QC","Bonaventure","no","CYVB","YVB","","","http://en.wikipedia.org/wiki/Bonaventure_Airport",""
1933,"CYVC","medium_airport","La Ronge Airport",55.1514015198,-105.262001038,1242,NA,"CA","CA-SK","La Ronge","yes","CYVC","YVC","","","http://en.wikipedia.org/wiki/La_Ronge_(Barber_Field)_Airport",""
1936,"CYVK","medium_airport","Vernon Airport",50.2481002807617,-119.331001281738,1140,NA,"CA","CA-BC","Vernon","no","CYVK","YVE","","","http://en.wikipedia.org/wiki/Vernon_Regional_Airport","YVK"
1937,"CYVM","medium_airport","Qikiqtarjuaq Airport",67.5457992554,-64.0314025879,21,NA,"CA","CA-NU","Qikiqtarjuaq","yes","CYVM","YVM","","","http://en.wikipedia.org/wiki/Qikiqtarjuaq_Airport",""
1938,"CYVO","medium_airport","Val-d'Or Airport",48.0532989502,-77.7827987671,1107,NA,"CA","CA-QC","Val-d'Or","yes","CYVO","YVO","","http://www.arvo.qc.ca/","http://en.wikipedia.org/wiki/Val-d'Or_Airport",""
1939,"CYVP","medium_airport","Kuujjuaq Airport",58.0960998535156,-68.4269027709961,129,NA,"CA","CA-QC","Kuujjuaq","yes","CYVP","YVP","","","http://en.wikipedia.org/wiki/Kuujjuaq_Airport",""
1940,"CYVQ","medium_airport","Norman Wells Airport",65.2816009521484,-126.797996520996,238,NA,"CA","CA-NT","Norman Wells","yes","CYVQ","YVQ","","","http://en.wikipedia.org/wiki/Norman_Wells_Airport",""
1941,"CYVR","large_airport","Vancouver International Airport",49.193901062,-123.183998108,14,NA,"CA","CA-BC","Vancouver","yes","CYVR","YVR","","http://www.yvr.ca/","http://en.wikipedia.org/wiki/Vancouver_International_Airport",""
1943,"CYVV","medium_airport","Wiarton Airport",44.7458,-81.107201,729,NA,"CA","CA-ON","Wiarton","no","CYVV","YVV","","http://wiartonairport.ca/","http://en.wikipedia.org/wiki/Wiarton_Airport",""
1944,"CYVZ","medium_airport","Deer Lake Airport",52.6557998657227,-94.0614013671875,1092,NA,"CA","CA-ON","Deer Lake","yes","CYVZ","YVZ","","","http://en.wikipedia.org/wiki/Deer_Lake_Airport_(Ontario)",""
1945,"CYWA","medium_airport","Petawawa Airport",45.9522018432617,-77.3191986083984,427,NA,"CA","CA-ON","Petawawa","no","CYWA","YWA","","","http://en.wikipedia.org/wiki/Petawawa_Airport",""
1946,"CYWG","large_airport","Winnipeg / James Armstrong Richardson International Airport",49.9099998474,-97.2398986816,783,NA,"CA","CA-MB","Winnipeg","yes","CYWG","YWG","YWG","http://www.waa.ca/","http://en.wikipedia.org/wiki/Winnipeg_James_Armstrong_Richardson_International_Airport","CFB Winnipeg"
1948,"CYWJ","medium_airport","Déline Airport",65.2110977172852,-123.435997009277,703,NA,"CA","CA-NT","Déline","yes","CYWJ","YWJ","","","http://en.wikipedia.org/wiki/Deline_Airport",""
1949,"CYWK","medium_airport","Wabush Airport",52.9219017028809,-66.8644027709961,1808,NA,"CA","CA-NL","Wabush","yes","CYWK","YWK","","","http://en.wikipedia.org/wiki/Wabush_Airport",""
1950,"CYWL","medium_airport","Williams Lake Airport",52.1831016541,-122.054000854,3085,NA,"CA","CA-BC","Williams Lake","yes","CYWL","YWL","","","http://en.wikipedia.org/wiki/Williams_Lake_Airport",""
1952,"CYWP","medium_airport","Webequie Airport",52.9593933975,-87.3748683929,685,NA,"CA","CA-ON","Webequie","yes","CYWP","YWP","","","http://en.wikipedia.org/wiki/Webequie_Airport",""
1954,"CYWY","medium_airport","Wrigley Airport",63.209400177002,-123.436996459961,489,NA,"CA","CA-NT","Wrigley","no","CYWY","YWY","","","http://en.wikipedia.org/wiki/Wrigley_Airport",""
1955,"CYXC","medium_airport","Cranbrook/Canadian Rockies International Airport",49.610801696777,-115.78199768066,3082,NA,"CA","CA-BC","Cranbrook","yes","CYXC","YXC","","","http://en.wikipedia.org/wiki/Cranbrook/Canadian_Rockies_International_Airport",""
1957,"CYXE","medium_airport","Saskatoon John G. Diefenbaker International Airport",52.1707992553711,-106.699996948242,1653,NA,"CA","CA-SK","Saskatoon","yes","CYXE","YXE","","","http://en.wikipedia.org/wiki/Saskatoon/John_G._Diefenbaker_International_Airport",""
1958,"CYXH","medium_airport","Medicine Hat Airport",50.0189018249512,-110.721000671387,2352,NA,"CA","CA-AB","Medicine Hat","yes","CYXH","YXH","","","http://en.wikipedia.org/wiki/Medicine_Hat_Airport",""
1959,"CYXJ","medium_airport","Fort St John Airport",56.2380981445312,-120.73999786377,2280,NA,"CA","CA-BC","Fort St.John","yes","CYXJ","YXJ","","","http://en.wikipedia.org/wiki/Fort_St._John_Airport",""
1960,"CYXK","medium_airport","Rimouski Airport",48.478099822998,-68.4969024658203,82,NA,"CA","CA-QC","Rimouski","no","CYXK","YXK","","","http://en.wikipedia.org/wiki/Rimouski_Airport",""
1961,"CYXL","medium_airport","Sioux Lookout Airport",50.113899230957,-91.9052963256836,1258,NA,"CA","CA-ON","Sioux Lookout","yes","CYXL","YXL","","","http://en.wikipedia.org/wiki/Sioux_Lookout_Airport",""
1962,"CYXN","medium_airport","Whale Cove Airport",62.2400016785,-92.5980987549,40,NA,"CA","CA-NU","Whale Cove","yes","CYXN","YXN","","","http://en.wikipedia.org/wiki/Whale_Cove_Airport",""
1963,"CYXP","medium_airport","Pangnirtung Airport",66.1449966431,-65.7136001587,75,NA,"CA","CA-NU","Pangnirtung","yes","CYXP","YXP","","","http://en.wikipedia.org/wiki/Pangnirtung_Airport",""
1964,"CYXQ","medium_airport","Beaver Creek Airport",62.4103012084961,-140.867004394531,2131,NA,"CA","CA-YT","Beaver Creek","no","CYXQ","YXQ","","","http://en.wikipedia.org/wiki/Beaver_Creek_Airport",""
1965,"CYXR","medium_airport","Earlton (Timiskaming Regional) Airport",47.6974006546,-79.8473453522,800,NA,"CA","CA-ON","Earlton","no","CYXR","YXR","","","http://en.wikipedia.org/wiki/Earlton_(Timiskaming_Regional)_Airport","yxr"
1966,"CYXS","medium_airport","Prince George Airport",53.8894004822,-122.679000854,2267,NA,"CA","CA-BC","Prince George","yes","CYXS","YXS","","","http://en.wikipedia.org/wiki/Prince_George_Airport",""
1967,"CYXT","medium_airport","Northwest Regional Airport Terrace-Kitimat",54.468498,-128.576009,713,NA,"CA","CA-BC","Terrace","yes","CYXT","YXT","","","http://en.wikipedia.org/wiki/Terrace_Airport",""
1968,"CYXU","medium_airport","London Airport",43.035599,-81.1539,912,NA,"CA","CA-ON","London","yes","CYXU","YXU","","http://www.londonairport.on.ca/","http://en.wikipedia.org/wiki/London_International_Airport",""
1969,"CYXX","medium_airport","Abbotsford Airport",49.0252990722656,-122.361000061035,195,NA,"CA","CA-BC","Abbotsford","yes","CYXX","YXX","","http://www.abbotsfordairport.ca/","http://en.wikipedia.org/wiki/Abbotsford_International_Airport",""
1970,"CYXY","medium_airport","Whitehorse / Erik Nielsen International Airport",60.7095985413,-135.067001343,2317,NA,"CA","CA-YT","Whitehorse","yes","CYXY","YXY","","","http://en.wikipedia.org/wiki/Whitehorse_International_Airport",""
1971,"CYXZ","medium_airport","Wawa Airport",47.9667015075684,-84.7866973876953,942,NA,"CA","CA-ON","Wawa","no","CYXZ","YXZ","","","http://en.wikipedia.org/wiki/Wawa_Airport",""
1972,"CYYB","medium_airport","North Bay Jack Garland Airport",46.363602,-79.422798,1215,NA,"CA","CA-ON","North Bay","yes","CYYB","YYB","","https://yyb.ca/","http://en.wikipedia.org/wiki/North_Bay/Jack_Garland_Airport","Jack Garland Airport, CFB North Bay"
1973,"CYYC","large_airport","Calgary International Airport",51.113899231,-114.019996643,3557,NA,"CA","CA-AB","Calgary","yes","CYYC","YYC","","http://www.calgaryairport.com/","http://en.wikipedia.org/wiki/Calgary_International_Airport","McCall Field"
1974,"CYYD","medium_airport","Smithers Airport",54.8246994018555,-127.182998657227,1712,NA,"CA","CA-BC","Smithers","yes","CYYD","YYD","","","http://en.wikipedia.org/wiki/Smithers_Airport",""
1975,"CYYE","medium_airport","Fort Nelson Airport",58.8363990784,-122.597000122,1253,NA,"CA","CA-BC","Fort Nelson","yes","CYYE","YYE","","","http://en.wikipedia.org/wiki/Fort_Nelson_Airport",""
1976,"CYYF","medium_airport","Penticton Airport",49.4631004333496,-119.601997375488,1129,NA,"CA","CA-BC","Penticton","yes","CYYF","YYF","","","http://en.wikipedia.org/wiki/Penticton_Regional_Airport",""
1977,"CYYG","medium_airport","Charlottetown Airport",46.2900009155273,-63.1211013793945,160,NA,"CA","CA-PE","Charlottetown","yes","CYYG","YYG","","","http://en.wikipedia.org/wiki/Charlottetown_Airport","PEI"
1978,"CYYH","medium_airport","Taloyoak Airport",69.5466995239,-93.5766983032,92,NA,"CA","CA-NU","Taloyoak","yes","CYYH","YYH","","","http://en.wikipedia.org/wiki/Taloyoak_Airport",""
1979,"CYYJ","large_airport","Victoria International Airport",48.646900177,-123.426002502,63,NA,"CA","CA-BC","Victoria","yes","CYYJ","YYJ","","http://www.victoriaairport.com/","http://en.wikipedia.org/wiki/Victoria_International_Airport",""
1980,"CYYL","medium_airport","Lynn Lake Airport",56.863899230957,-101.075996398926,1170,NA,"CA","CA-MB","Lynn Lake","yes","CYYL","YYL","","","http://en.wikipedia.org/wiki/Lynn_Lake_Airport",""
1982,"CYYN","medium_airport","Swift Current Airport",50.2919006348,-107.691001892,2680,NA,"CA","CA-SK","Swift Current","no","CYYN","YYN","","http://www.swiftcurrentairport.com/","http://en.wikipedia.org/wiki/Swift_Current_Airport","YYN"
1984,"CYYQ","medium_airport","Churchill Airport",58.739200592041,-94.0650024414062,94,NA,"CA","CA-MB","Churchill","yes","CYYQ","YYQ","","","http://en.wikipedia.org/wiki/Churchill_Airport",""
1985,"CYYR","medium_airport","Goose Bay Airport",53.3191986084,-60.4258003235,160,NA,"CA","CA-NL","Goose Bay","yes","CYYR","YYR","","","http://en.wikipedia.org/wiki/CFB_Goose_Bay","CFB Goose Bay"
1986,"CYYT","large_airport","St. John's International Airport",47.618598938,-52.7518997192,461,NA,"CA","CA-NL","St. John's","yes","CYYT","YYT","","http://www.stjohnsairport.com/","http://en.wikipedia.org/wiki/St._John's_International_Airport",""
1987,"CYYU","medium_airport","Kapuskasing Airport",49.4138984680176,-82.4674987792969,743,NA,"CA","CA-ON","Kapuskasing","yes","CYYU","YYU","","","http://en.wikipedia.org/wiki/Kapuskasing_Airport",""
1988,"CYYW","medium_airport","Armstrong Airport",50.2902984619141,-88.9096984863281,1058,NA,"CA","CA-ON","Armstrong","no","CYYW","YYW","","","http://en.wikipedia.org/wiki/Armstrong_Airport",""
1989,"CYYY","medium_airport","Mont Joli Airport",48.6086006164551,-68.2080993652344,172,NA,"CA","CA-QC","Mont-Joli","yes","CYYY","YYY","","","http://en.wikipedia.org/wiki/Mont-Joli_Airport",""
1990,"CYYZ","large_airport","Lester B. Pearson International Airport",43.6772003174,-79.6305999756,569,NA,"CA","CA-ON","Toronto","yes","CYYZ","YYZ","YYZ","http://www.gtaa.com/","http://en.wikipedia.org/wiki/Toronto_Pearson_International_Airport","YTO, Toronto International Airport, Malton"
1991,"CYZD","medium_airport","Downsview Airport",43.7425003051758,-79.4655990600586,652,NA,"CA","CA-ON","Toronto","no","CYZD","YZD","","","http://en.wikipedia.org/wiki/Toronto/Downsview_Airport",""
1992,"CYZE","medium_airport","Gore Bay Manitoulin Airport",45.8852996826172,-82.5678024291992,635,NA,"CA","CA-ON","Gore Bay","no","CYZE","YZE","","","http://en.wikipedia.org/wiki/Gore_Bay-Manitoulin_Airport",""
1993,"CYZF","medium_airport","Yellowknife Airport",62.4627990722656,-114.440002441406,675,NA,"CA","CA-NT","Yellowknife","yes","CYZF","YZF","","","http://en.wikipedia.org/wiki/Yellowknife_Airport",""
1994,"CYZG","medium_airport","Salluit Airport",62.1794013977051,-75.6671981811523,743,NA,"CA","CA-QC","Salluit","yes","CYZG","YZG","","","http://en.wikipedia.org/wiki/Salluit_Airport",""
1995,"CYZH","medium_airport","Slave Lake Airport",55.2930984497,-114.777000427,1912,NA,"CA","CA-AB","Slave Lake","no","CYZH","YZH","","http://slavelakeairport.com","http://en.wikipedia.org/wiki/Slave_Lake_Airport","YZH"
1996,"CYZP","medium_airport","Sandspit Airport",53.2542991638,-131.813995361,21,NA,"CA","CA-BC","Sandspit","yes","CYZP","YZP","","","http://en.wikipedia.org/wiki/Sandspit_Airport","Queen Charlotte Islands, Haida Gwaii"
1997,"CYZR","medium_airport","Chris Hadfield Airport",42.9994010925293,-82.3088989257812,594,NA,"CA","CA-ON","Sarnia","yes","CYZR","YZR","","","http://en.wikipedia.org/wiki/Sarnia_(Chris_Hadfield)_Airport",""
1998,"CYZS","medium_airport","Coral Harbour Airport",64.1932983398,-83.3593978882,210,NA,"CA","CA-NU","Coral Harbour","yes","CYZS","YZS","","","http://en.wikipedia.org/wiki/Coral_Harbour_Airport",""
1999,"CYZT","medium_airport","Port Hardy Airport",50.6805992126465,-127.366996765137,71,NA,"CA","CA-BC","Port Hardy","yes","CYZT","YZT","","","http://en.wikipedia.org/wiki/Port_Hardy_Airport",""
2000,"CYZU","medium_airport","Whitecourt Airport",54.1439018249512,-115.787002563477,2567,NA,"CA","CA-AB","Whitecourt","no","CYZU","YZU","","","http://en.wikipedia.org/wiki/Whitecourt_Airport",""
2001,"CYZV","medium_airport","Sept-Îles Airport",50.2233009338379,-66.2656021118164,180,NA,"CA","CA-QC","Sept-Îles","yes","CYZV","YZV","","","http://en.wikipedia.org/wiki/Sept-%C3%8Eles_Airport",""
2002,"CYZW","medium_airport","Teslin Airport",60.1727981567383,-132.74299621582,2313,NA,"CA","CA-YT","Teslin","no","CYZW","YZW","","","http://en.wikipedia.org/wiki/Teslin_Airport",""
2003,"CYZX","medium_airport","CFB Greenwood",44.9844017028809,-64.9169006347656,92,NA,"CA","CA-NS","Greenwood","no","CYZX","YZX","","","http://en.wikipedia.org/wiki/CFB_Greenwood","Greenwood Airport"
2005,"CZAC","medium_airport","York Landing Airport",56.0894012451172,-96.0892028808594,621,NA,"CA","CA-MB","York Landing","yes","CZAC","ZAC","","","http://en.wikipedia.org/wiki/York_Landing_Airport",""
2006,"CZAM","medium_airport","Shuswap Regional Airport",50.682802,-119.228996,1751,NA,"CA","CA-BC","Salmon Arm","no","CZAM","YSN","","http://www.salmonarm.ca/index.aspx?nid=228","http://en.wikipedia.org/wiki/Salmon_Arm_Airport","AM4, Shuswap Regional Airport, Salmon Arm Airport"
2008,"CZBB","medium_airport","Boundary Bay Airport",49.0742,-123.012001,6,NA,"CA","CA-BC","Vancouver","no","CZBB","YDT","","http://http://czbb.com/","http://en.wikipedia.org/wiki/Boundary_Bay_Airport","ZBB"
2009,"CZBD","medium_airport","Ilford Airport",56.0614013672,-95.613899231,642,NA,"CA","CA-MB","Ilford","yes","CZBD","ILF","","","http://en.wikipedia.org/wiki/Ilford_Airport","ZBD"
2010,"CZBF","medium_airport","Bathurst Airport",47.629699707,-65.738899231,193,NA,"CA","CA-NB","Bathurst","yes","CZBF","ZBF","","","http://en.wikipedia.org/wiki/Bathurst_Airport_(New_Brunswick)","ZBF"
2011,"CZBM","medium_airport","Bromont (Roland Desourdy) Airport",45.2907981873,-72.7414016724,375,NA,"CA","CA-QC","Bromont","no","CZBM","ZBM","","","http://en.wikipedia.org/wiki/Bromont_Airport",""
2012,"CZEE","medium_airport","Kelsey Airport",56.0374984741,-96.5096969604,600,NA,"CA","CA-MB","Kelsey","no","CZEE","KES","ZEE","","http://en.wikipedia.org/wiki/Kelsey_Airport",""
2013,"CZEM","medium_airport","Eastmain River Airport",52.2263984680176,-78.5224990844727,24,NA,"CA","CA-QC","Eastmain River","yes","CZEM","ZEM","","","http://en.wikipedia.org/wiki/Eastmain_River_Airport",""
2014,"CZFA","medium_airport","Faro Airport",62.2075004577637,-133.376007080078,2351,NA,"CA","CA-YT","Faro","no","CZFA","ZFA","","","http://en.wikipedia.org/wiki/Faro_Airport_(Yukon)",""
2015,"CZFD","medium_airport","Fond-Du-Lac Airport",59.334400177002,-107.181999206543,814,NA,"CA","CA-SK","Fond-Du-Lac","yes","CZFD","ZFD","","","http://en.wikipedia.org/wiki/Fond-du-Lac_Airport",""
2016,"CZFG","medium_airport","Pukatawagan Airport",55.7491989136,-101.26599884,958,NA,"CA","CA-MB","Pukatawagan","no","CZFG","XPK","ZFG","","http://en.wikipedia.org/wiki/Pukatawagan_Airport",""
2017,"CZFM","medium_airport","Fort Mcpherson Airport",67.4075012207031,-134.860992431641,116,NA,"CA","CA-NT","Fort Mcpherson","yes","CZFM","ZFM","","","http://en.wikipedia.org/wiki/Fort_McPherson_Airport",""
2018,"CZFN","medium_airport","Tulita Airport",64.909697,-125.572998,332,NA,"CA","CA-NT","Tulita","yes","CZFN","ZFN","","","http://en.wikipedia.org/wiki/Tulita_Airport","Fort Norman"
2019,"CZGF","medium_airport","Grand Forks Airport",49.0155982971191,-118.430999755859,1720,NA,"CA","CA-BC","Grand Forks","no","CZGF","ZGF","","","http://en.wikipedia.org/wiki/Grand_Forks_Airport",""
2020,"CZGI","medium_airport","Gods River Airport",54.8396987915039,-94.0785980224609,627,NA,"CA","CA-MB","Gods River","yes","CZGI","ZGI","","","http://en.wikipedia.org/wiki/Gods_River_Airport",""
2021,"CZGR","medium_airport","Little Grand Rapids Airport",52.0456008911133,-95.4657974243164,1005,NA,"CA","CA-MB","Little Grand Rapids","no","CZGR","ZGR","","","http://en.wikipedia.org/wiki/Little_Grand_Rapids_Airport",""
2023,"CZJG","medium_airport","Jenpeg Airport",54.5189018249512,-98.0460968017578,729,NA,"CA","CA-MB","Jenpeg","no","CZJG","ZJG","","","http://en.wikipedia.org/wiki/Jenpeg_Airport",""
2024,"CZJN","medium_airport","Swan River Airport",52.1206016540527,-101.236000061035,1100,NA,"CA","CA-MB","Swan River","yes","CZJN","ZJN","","","http://en.wikipedia.org/wiki/Swan_River_Airport",""
2025,"CZKE","medium_airport","Kashechewan Airport",52.2825012207031,-81.6778030395508,35,NA,"CA","CA-ON","Kashechewan","yes","CZKE","ZKE","","","http://en.wikipedia.org/wiki/Kashechewan_Airport",""
2026,"CZLQ","medium_airport","Thicket Portage Airport",55.3189010620117,-97.7078018188477,678,NA,"CA","CA-MB","Thicket Portage","no","CZLQ","YTD","","","http://en.wikipedia.org/wiki/Thicket_Portage_Airport","ZLQ"
2027,"CZMD","medium_airport","Muskrat Dam Airport",53.4413986206055,-91.7628021240234,911,NA,"CA","CA-ON","Muskrat Dam","yes","CZMD","MSA","","","http://en.wikipedia.org/wiki/Muskrat_Dam_Airport","ZMD"
2029,"CZMN","medium_airport","Pikwitonei Airport",55.5889015197754,-97.1641998291016,630,NA,"CA","CA-MB","Pikwitonei","no","CZMN","PIW","","","http://en.wikipedia.org/wiki/Pikwitonei_Airport","ZMN"
2030,"CZMT","medium_airport","Masset Airport",54.0275001525879,-132.125,25,NA,"CA","CA-BC","Masset","yes","CZMT","ZMT","","","http://en.wikipedia.org/wiki/Masset_Airport",""
2031,"CZNG","medium_airport","Poplar River Airport",52.9965258788,-97.2741937637,728,NA,"CA","CA-MB","Poplar River","no","CZNG","XPP","","","http://en.wikipedia.org/wiki/Poplar_River_Airport",""
2033,"CZPB","medium_airport","Sachigo Lake Airport",53.8911018371582,-92.196403503418,876,NA,"CA","CA-ON","Sachigo Lake","yes","CZPB","ZPB","","","http://en.wikipedia.org/wiki/Sachigo_Lake_Airport",""
2034,"CZPC","medium_airport","Pincher Creek Airport",49.5205993652,-113.997001648,3903,NA,"CA","CA-AB","Pincher Creek","no","CZPC","WPC","","","http://en.wikipedia.org/wiki/Pincher_Creek_Airport","ZPC"
2036,"CZRJ","medium_airport","Round Lake (Weagamow Lake) Airport",52.9435997009277,-91.3127975463867,974,NA,"CA","CA-ON","Round Lake","yes","CZRJ","ZRJ","","","http://en.wikipedia.org/wiki/Round_Lake_(Weagamow_Lake)_Airport",""
2037,"CZSJ","medium_airport","Sandy Lake Airport",53.0642013549805,-93.3443984985352,951,NA,"CA","CA-ON","Sandy Lake","yes","CZSJ","ZSJ","","","http://en.wikipedia.org/wiki/Sandy_Lake_Airport",""
2038,"CZSN","medium_airport","South Indian Lake Airport",56.7928009033,-98.9072036743,951,NA,"CA","CA-MB","South Indian Lake","no","CZSN","XSI","ZSN","","http://en.wikipedia.org/wiki/South_Indian_Lake_Airport",""
2039,"CZST","medium_airport","Stewart Airport",55.935410448,-129.982434511,24,NA,"CA","CA-BC","Stewart","no","CZST","ZST","CZST","","http://en.wikipedia.org/wiki/Stewart_Airport_(British_Columbia)",""
2041,"CZTM","medium_airport","Shamattawa Airport",55.8656005859375,-92.0813980102539,289,NA,"CA","CA-MB","Shamattawa","yes","CZTM","ZTM","","","http://en.wikipedia.org/wiki/Shamattawa_Airport",""
2042,"CZUC","medium_airport","Ignace Municipal Airport",49.4296989440918,-91.7177963256836,1435,NA,"CA","CA-ON","Ignace","no","CZUC","ZUC","","","http://en.wikipedia.org/wiki/Ignace_Municipal_Airport",""
2045,"CZWH","medium_airport","Lac Brochet Airport",58.6175003052,-101.46900177,1211,NA,"CA","CA-MB","Lac Brochet","no","CZWH","XLB","ZWH","","http://en.wikipedia.org/wiki/Lac_Brochet_Airport",""
2046,"CZWL","medium_airport","Wollaston Lake Airport",58.1068992614746,-103.171997070312,1360,NA,"CA","CA-SK","Wollaston Lake","yes","CZWL","ZWL","","","http://en.wikipedia.org/wiki/Wollaston_Lake_Airport",""
2047,"DAAB","medium_airport","Blida Airport",36.5036010742188,2.81416988372803,535,"AF","DZ","DZ-09","","no","DAAB","QLD","","","http://en.wikipedia.org/wiki/Blida_Airport",""
2048,"DAAD","medium_airport","Bou Saada Airport",35.3325004577637,4.20638990402222,1506,"AF","DZ","DZ-28","","no","DAAD","BUJ","","","",""
2049,"DAAE","medium_airport","Soummam Airport",36.7120018005,5.06992006302,20,"AF","DZ","DZ-06","Béjaïa","yes","DAAE","BJA","","","http://en.wikipedia.org/wiki/Soummam_Airport",""
2050,"DAAG","large_airport","Houari Boumediene Airport",36.6910018920898,3.21540999412537,82,"AF","DZ","DZ-35","Algiers","yes","DAAG","ALG","","","http://en.wikipedia.org/wiki/Houari_Boumedienne_Airport",""
2051,"DAAJ","medium_airport","Djanet Inedbirene Airport",24.292801,9.45244,3176,"AF","DZ","DZ-33","Djanet","yes","DAAJ","DJG","","","http://en.wikipedia.org/wiki/Djanet_Inedbirene_Airport","Tiska Djanet Airport"
2054,"DAAP","medium_airport","Illizi Takhamalt Airport",26.7234992981,8.62265014648,1778,"AF","DZ","DZ-33","Illizi","yes","DAAP","VVZ","","","http://en.wikipedia.org/wiki/Illizi_Airport",""
32193,"DAAS","medium_airport","Ain Arnat Airport",36.1781005859,5.32449007034,3360,"AF","DZ","DZ-19","Sétif","yes","DAAS","QSF","","http://www.egsa-constantine.dz/","http://en.wikipedia.org/wiki/Ain_Arnat_Airport","Sétif International Airport, 8 Mai 45 Airport"
2056,"DAAT","medium_airport","Aguenar – Hadj Bey Akhamok Airport",22.8115005493,5.45107984543,4518,"AF","DZ","DZ-11","Tamanrasset","yes","DAAT","TMR","","","http://en.wikipedia.org/wiki/Tamanrasset_Airport",""
2057,"DAAV","medium_airport","Jijel Ferhat Abbas Airport",36.7951011658,5.87361001968,36,"AF","DZ","DZ-18","Jijel","yes","DAAV","GJL","","","http://en.wikipedia.org/wiki/Jijel_Ferhat_Abbas_Airport",""
2058,"DAAY","medium_airport","Mecheria Airport",33.535900116,-0.242353007197,3855,"AF","DZ","DZ-45","Mecheria","no","DAAY","MZW","","","http://fr.wikipedia.org/wiki/A%C3%A9roport_de_Mecheria",""
2060,"DABB","medium_airport","Rabah Bitat Airport",36.822201,7.809174,16,"AF","DZ","DZ-36","Annaba","yes","DABB","AAE","","","http://en.wikipedia.org/wiki/Rabah_Bitat_Airport","Les Salines Airport, El Mellah Airport, Annabah"
2061,"DABC","medium_airport","Mohamed Boudiaf International Airport",36.2760009765625,6.62038993835449,2265,"AF","DZ","DZ-25","Constantine","yes","DABC","CZL","","","http://en.wikipedia.org/wiki/Mohamed_Boudiaf_International_Airport",""
2062,"DABS","medium_airport","Cheikh Larbi Tébessi Airport",35.4315986633,8.12071990967,2661,"AF","DZ","DZ-12","Tébessi","yes","DABS","TEE","","","http://en.wikipedia.org/wiki/T%C3%A9bessa_Airport",""
2063,"DABT","medium_airport","Batna Airport",35.7521018982,6.3085899353,2697,"AF","DZ","DZ-05","Batna","yes","DABT","BLJ","","","http://en.wikipedia.org/wiki/Batna_Airport",""
2064,"DAFH","medium_airport","Hassi R'Mel Airport",32.9304008483887,3.31153988838196,2540,"AF","DZ","DZ-03","","yes","DAFH","HRM","","","http://en.wikipedia.org/wiki/Hassi_R'Mel_Airport",""
2065,"DAOB","medium_airport","Bou Chekif Airport",35.3410987854,1.46315002441,3245,"AF","DZ","DZ-14","Tiaret","no","DAOB","TID","","","http://en.wikipedia.org/wiki/Bou_Chekif_Airport",""
2067,"DAOF","medium_airport","Tindouf Airport",27.7003993988,-8.1670999527,1453,"AF","DZ","DZ-37","Tindouf","yes","DAOF","TIN","","","http://en.wikipedia.org/wiki/Tindouf_Airport",""
2068,"DAOI","medium_airport","Ech Cheliff Airport",36.2126998901,1.33176994324,463,"AF","DZ","DZ-02","","no","DAOI","CFK","","","http://en.wikipedia.org/wiki/Chlef_International_Airport",""
2069,"DAOL","medium_airport","Tafaraoui Airport",35.5424003601074,-0.532278001308441,367,"AF","DZ","DZ-31","","no","DAOL","TAF","","","",""
2070,"DAON","medium_airport","Zenata – Messali El Hadj Airport",35.0167007446,-1.45000004768,814,"AF","DZ","DZ-13","Tlemcen","yes","DAON","TLM","","","http://en.wikipedia.org/wiki/Zenata_Airport",""
2071,"DAOO","medium_airport","Es Senia Airport",35.6239013672,-0.621182978153,295,"AF","DZ","DZ-31","Oran","yes","DAOO","ORN","","","http://en.wikipedia.org/wiki/Oran_Es_Senia_Airport",""
2072,"DAOR","medium_airport","Béchar Boudghene Ben Ali Lotfi Airport",31.6457004547119,-2.26986002922058,2661,"AF","DZ","DZ-08","Béchar","yes","DAOR","CBH","","","http://en.wikipedia.org/wiki/B%C3%A9char_Ouakda_Airport","Béchar Ouakda Airport"
2074,"DAOV","medium_airport","Ghriss Airport",35.2076988220215,0.147141993045807,1686,"AF","DZ","DZ-29","","no","DAOV","MUW","","","",""
2075,"DAUA","medium_airport","Touat Cheikh Sidi Mohamed Belkebir Airport",27.8376007080078,-0.186414003372192,919,"AF","DZ","DZ-01","","yes","DAUA","AZR","","","http://en.wikipedia.org/wiki/Touat_Cheikh_Sidi_Mohamed_Belkebir_Airport",""
2076,"DAUB","medium_airport","Biskra Airport",34.7933006287,5.73823022842,289,"AF","DZ","DZ-07","Biskra","yes","DAUB","BSK","","","http://en.wikipedia.org/wiki/Biskra_Airport",""
2077,"DAUE","medium_airport","El Golea Airport",30.5713005065918,2.85959005355835,1306,"AF","DZ","DZ-47","","yes","DAUE","ELG","","","http://en.wikipedia.org/wiki/El_Golea_Airport",""
2078,"DAUG","medium_airport","Noumérat - Moufdi Zakaria Airport",32.3841018676758,3.79411005973816,1512,"AF","DZ","DZ-47","Ghardaïa","yes","DAUG","GHA","","","http://en.wikipedia.org/wiki/Noumerate_Airport",""
2079,"DAUH","medium_airport","Oued Irara Airport",31.6730003357,6.14043998718,463,"AF","DZ","DZ-30","Hassi Messaoud","yes","DAUH","HME","","","http://en.wikipedia.org/wiki/Oued_Irara_Airport",""
2080,"DAUI","medium_airport","In Salah Airport",27.2509994507,2.51202011108,896,"AF","DZ","DZ-11","In Salah","yes","DAUI","INZ","","","http://en.wikipedia.org/wiki/In_Salah_Airport",""
2081,"DAUK","medium_airport","Touggourt Sidi Madhi Airport",33.067798614502,6.0886697769165,279,"AF","DZ","DZ-30","Touggourt","yes","DAUK","TGR","","","http://en.wikipedia.org/wiki/Touggourt_Sidi_Madhi_Airport",""
2082,"DAUL","medium_airport","Laghouat Airport",33.7644004822,2.92833995819,2510,"AF","DZ","DZ-03","Laghouat","no","DAUL","LOO","","","",""
2083,"DAUO","medium_airport","Guemar Airport",33.5113983154,6.77679014206,203,"AF","DZ","DZ-39","Guemar","yes","DAUO","ELU","","","http://en.wikipedia.org/wiki/Guemar_Airport",""
2084,"DAUT","medium_airport","Timimoun Airport",29.2371006012,0.276033014059,1027,"AF","DZ","DZ-01","Timimoun","yes","DAUT","TMX","","","http://en.wikipedia.org/wiki/Timimoun_Airport",""
2085,"DAUU","medium_airport","Ain el Beida Airport",31.917200088501,5.41277980804443,492,"AF","DZ","DZ-30","Ouargla","yes","DAUU","OGX","","","http://en.wikipedia.org/wiki/Ain_el_Beida_Airport",""
2086,"DAUZ","medium_airport","In Aménas Airport",28.0515,9.64291,1847,"AF","DZ","DZ-33","Aménas","yes","DAUZ","IAM","","","https://en.wikipedia.org/wiki/In_Amenas_Airport",""
2087,"DBBB","medium_airport","Cadjehoun Airport",6.3572301864624,2.38435006141663,19,"AF","BJ","BJ-AQ","Cotonou","yes","DBBB","COO","","","http://en.wikipedia.org/wiki/Cadjehoun_Airport",""
316519,"DBC","medium_airport","Baicheng Chang'an Airport",45.505278,123.019722,480,"AS","CN","CN-22","Baicheng","no","ZYBA","DBC","","","https://en.wikipedia.org/wiki/Baicheng_Chang%27an_Airport",""
2088,"DFFD","large_airport","Ouagadougou Airport",12.3532,-1.51242,1037,"AF","BF","BF-KAD","Ouagadougou","yes","DFFD","OUA","","","http://en.wikipedia.org/wiki/Ouagadougou_Airport",""
2089,"DFOO","medium_airport","Bobo Dioulasso Airport",11.1600999832153,-4.33096981048584,1511,"AF","BF","BF-HOU","Bobo Dioulasso","yes","DFOO","BOY","","","http://en.wikipedia.org/wiki/Bobo_Dioulasso_Airport",""
2090,"DGAA","large_airport","Kotoka International Airport",5.60518980026245,-0.166786000132561,205,"AF","GH","GH-AA","Accra","yes","DGAA","ACC","","","http://en.wikipedia.org/wiki/Kotoka_International_Airport",""
2091,"DGLE","medium_airport","Tamale Airport",9.55718994140625,-0.863214015960693,553,"AF","GH","GH-NP","Tamale","yes","DGLE","TML","","","http://en.wikipedia.org/wiki/Tamale_Airport",""
2093,"DGSI","medium_airport","Kumasi Airport",6.71456003189087,-1.59081995487213,942,"AF","GH","GH-AH","Kumasi","yes","DGSI","KMS","","","http://en.wikipedia.org/wiki/Kumasi_Airport",""
2094,"DGSN","medium_airport","Sunyani Airport",7.36183023452759,-2.32875990867615,1014,"AF","GH","GH-BA","Sunyani","yes","DGSN","NYI","","","http://en.wikipedia.org/wiki/Sunyani_Airport",""
2095,"DGTK","medium_airport","Takoradi Airport",4.8960599899292,-1.77476000785828,21,"AF","GH","GH-WP","Sekondi-Takoradi","yes","DGTK","TKD","","","http://en.wikipedia.org/wiki/Takoradi_Airport",""
2096,"DIAP","medium_airport","Port Bouet Airport",5.261390209198,-3.9262900352478,21,"AF","CI","CI-01","Abidjan","yes","DIAP","ABJ","","","http://en.wikipedia.org/wiki/Port_Bouet_Airport","Félix Houphouët-Boigny International Airport"
2097,"DIBK","medium_airport","Bouaké Airport",7.73880004882812,-5.07366991043091,1230,"AF","CI","CI-04","","yes","DIBK","BYK","","","http://en.wikipedia.org/wiki/Bouak%C3%A9_Airport",""
2098,"DIDL","medium_airport","Daloa Airport",6.79280996322632,-6.47318983078003,823,"AF","CI","CI-02","","no","DIDL","DJO","","","",""
2099,"DIKO","medium_airport","Korhogo Airport",9.38718032837,-5.55666017532,1214,"AF","CI","CI-03","Korhogo","no","DIKO","HGO","","","http://en.wikipedia.org/wiki/Korhogo_Airport",""
2100,"DIMN","medium_airport","Man Airport",7.27206993103027,-7.58735990524292,1089,"AF","CI","CI-06","","no","DIMN","MJC","","","",""
2101,"DISP","medium_airport","San Pedro Airport",4.74671983718872,-6.66082000732422,26,"AF","CI","CI-09","","no","DISP","SPY","","","",""
2102,"DIYO","medium_airport","Yamoussoukro Airport",6.9031701088,-5.36558008194,699,"AF","CI","CI-07","Yamoussoukro","no","DIYO","ASK","","","http://en.wikipedia.org/wiki/Yamoussoukro_Airport",""
2104,"DNAA","large_airport","Nnamdi Azikiwe International Airport",9.00679016113281,7.26316976547241,1123,"AF","NG","NG-FC","Abuja","yes","DNAA","ABV","","http://www.faannigeria.org/nigeria-airport.php?airport=3","http://en.wikipedia.org/wiki/Nnamdi_Azikiwe_International_Airport",""
309668,"DNAI","large_airport","Akwa Ibom International Airport",4.8725,8.093,170,"AF","NG","NG-AK","Uyo","yes","DNAI","QUO","","http://www.ibomairport.com.ng/","http://en.wikipedia.org/wiki/Akwa_Ibom_Airport",""
2105,"DNAK","medium_airport","Akure Airport",7.24673986434937,5.30101013183594,1100,"AF","NG","NG-ON","Akure","yes","DNAK","AKR","","http://www.faannigeria.org/nigeria-airport.php?airport=21","http://en.wikipedia.org/wiki/Akure_Airport",""
300781,"DNAS","medium_airport","Asaba International Airport",6.204167,6.665278,305,"AF","NG","NG-DE","Asaba","no","DNAS","ABB","","","http://en.wikipedia.org/wiki/Asaba_International_Airport","Onitsha"
323056,"DNBC","medium_airport","Sir Abubakar Tafawa Balewa International Airport",10.482833,9.744,1965,"AF","NG","NG-BA","Bauchi","yes","DNBC","BCU","","","https://en.wikipedia.org/wiki/Bauchi_State_Airport","Bauchi State Airport"
2106,"DNBE","medium_airport","Benin Airport",6.31697988510132,5.59950017929077,258,"AF","NG","NG-ED","Benin","yes","DNBE","BNI","","http://www.faannigeria.org/nigeria-airport.php?airport=22","http://en.wikipedia.org/wiki/Benin_Airport",""
2107,"DNCA","medium_airport","Margaret Ekpo International Airport",4.97601985931396,8.34720039367676,210,"AF","NG","NG-CR","Calabar","yes","DNCA","CBQ","","http://www.faannigeria.org/nigeria-airport.php?airport=12","http://en.wikipedia.org/wiki/Margaret_Ekpo_International_Airport",""
2108,"DNEN","medium_airport","Akanu Ibiam International Airport",6.47426986694336,7.56196022033691,466,"AF","NG","NG-EN","Enegu","yes","DNEN","ENU","","http://www.faannigeria.org/nigeria-airport.php?airport=11","http://en.wikipedia.org/wiki/Akanu_Ibiam_International_Airport",""
2110,"DNIB","medium_airport","Ibadan Airport",7.36246013641357,3.97832989692688,725,"AF","NG","NG-OY","Ibadan","yes","DNIB","IBA","","http://www.faannigeria.org/nigeria-airport.php?airport=7","http://en.wikipedia.org/wiki/Ibadan_Airport",""
2111,"DNIL","medium_airport","Ilorin International Airport",8.44021034240723,4.49391984939575,1126,"AF","NG","NG-KW","Ilorin","yes","DNIL","ILR","","http://www.faannigeria.org/nigeria-airport.php?airport=20","http://en.wikipedia.org/wiki/Ilorin_International_Airport",""
2112,"DNIM","medium_airport","Sam Mbakwe International Airport",5.4270601272583,7.20602989196777,373,"AF","NG","NG-IM","Owerri","yes","DNIM","QOW","","http://www.faannigeria.org/nigeria-airport.php?airport=17","http://en.wikipedia.org/wiki/Sam_Mbakwe_International_Cargo_Airport","Imo Airport"
2113,"DNJO","medium_airport","Yakubu Gowon Airport",9.63982963562012,8.86905002593994,4232,"AF","NG","NG-PL","Jos","yes","DNJO","JOS","","http://www.faannigeria.org/nigeria-airport.php?airport=15","http://en.wikipedia.org/wiki/Yakubu_Gowon_Airport",""
2114,"DNKA","medium_airport","Kaduna Airport",10.6960000991821,7.32010984420776,2073,"AF","NG","NG-KD","Kaduna","yes","DNKA","KAD","","http://www.faannigeria.org/nigeria-airport.php?airport=10","http://en.wikipedia.org/wiki/Kaduna_Airport",""
2115,"DNKN","large_airport","Mallam Aminu International Airport",12.0476,8.52462,1562,"AF","NG","NG-KN","Kano","yes","DNKN","KAN","","http://www.faannigeria.org/nigeria-airport.php?airport=2","http://en.wikipedia.org/wiki/Mallam_Aminu_Kano_International_Airport",""
2116,"DNMA","medium_airport","Maiduguri International Airport",11.855299949646,13.0809001922607,1099,"AF","NG","NG-BO","Maiduguri","yes","DNMA","MIU","","http://www.faannigeria.org/nigeria-airport.php?airport=14","http://en.wikipedia.org/wiki/Maiduguri_International_Airport",""
2117,"DNMK","medium_airport","Makurdi Airport",7.70388,8.61394,371,"AF","NG","NG-BE","Makurdi","yes","DNMK","MDI","","http://www.faannigeria.org/nigeria-airport.php?airport=23","https://en.wikipedia.org/wiki/Makurdi_Airport",""
2118,"DNMM","large_airport","Murtala Muhammed International Airport",6.57737016677856,3.32116007804871,135,"AF","NG","NG-LA","Lagos","yes","DNMM","LOS","","http://www.faannigeria.org/nigeria-airport.php?airport=1","http://en.wikipedia.org/wiki/Murtala_Mohammed_International_Airport",""
2119,"DNMN","medium_airport","Minna Airport",9.65217018127441,6.4622597694397,834,"AF","NG","NG-NI","Minna","no","DNMN","MXJ","","http://www.faannigeria.org/nigeria-airport.php?airport=19","http://en.wikipedia.org/wiki/Minna_Airport",""
2120,"DNPO","medium_airport","Port Harcourt International Airport",5.01549005508423,6.94959020614624,87,"AF","NG","NG-RI","Port Harcourt","yes","DNPO","PHC","","http://www.faannigeria.org/nigeria-airport.php?airport=4","http://en.wikipedia.org/wiki/Port_Harcourt_International_Airport",""
2121,"DNSO","medium_airport","Sadiq Abubakar III International Airport",12.9162998199463,5.20719003677368,1010,"AF","NG","NG-SO","Sokoto","yes","DNSO","SKO","","http://www.faannigeria.org/nigeria-airport.php?airport=13","http://en.wikipedia.org/wiki/Sadiq_Abubakar_III_International_Airport",""
2122,"DNYO","medium_airport","Yola Airport",9.25755023956299,12.4303998947144,599,"AF","NG","NG-AD","Yola","yes","DNYO","YOL","","http://www.faannigeria.org/nigeria-airport.php?airport=16","http://en.wikipedia.org/wiki/Yola_Airport",""
2123,"DNZA","medium_airport","Zaria Airport",11.1302,7.68581,2170,"AF","NG","NG-KD","Zaria","no","DNZA","ZAR","","http://www.faannigeria.org/nigeria-airport.php?airport=24","https://en.wikipedia.org/wiki/Zaria_Airport",""
2124,"DRRM","medium_airport","Maradi Airport",13.5024995803833,7.12674999237061,1240,"AF","NE","NE-4","Maradi","no","DRRM","MFQ","","","",""
2125,"DRRN","large_airport","Diori Hamani International Airport",13.4815,2.18361,732,"AF","NE","NE-8","Niamey","yes","DRRN","NIM","","","http://en.wikipedia.org/wiki/Diori_Hamani_International_Airport",""
2126,"DRRT","medium_airport","Tahoua Airport",14.8756999969482,5.26535987854004,1266,"AF","NE","NE-5","Tahoua","no","DRRT","THZ","","","",""
2127,"DRZA","medium_airport","Mano Dayak International Airport",16.9659996032715,8.00010967254639,1657,"AF","NE","NE-1","Agadez","yes","DRZA","AJY","","","http://en.wikipedia.org/wiki/Mano_Dayak_International_Airport",""
2130,"DRZR","medium_airport","Zinder Airport",13.7790002822876,8.98375988006592,1516,"AF","NE","NE-7","Zinder","yes","DRZR","ZND","","","http://en.wikipedia.org/wiki/Zinder_Airport",""
2131,"DTKA","medium_airport","Tabarka 7 Novembre Airport",36.9799995422363,8.87693977355957,230,"AF","TN","TN-32","Tabarka","yes","DTKA","TBJ","","","http://en.wikipedia.org/wiki/Tabarka_-_7_Novembre_International_Airport",""
2132,"DTMB","medium_airport","Monastir Habib Bourguiba International Airport",35.7580986022949,10.7546997070312,9,"AF","TN","TN-52","Monastir","yes","DTMB","MIR","","","http://en.wikipedia.org/wiki/Habib_Bourguiba_International_Airport",""
2133,"DTTA","large_airport","Tunis Carthage International Airport",36.851001739502,10.2271995544434,22,"AF","TN","TN-11","Tunis","yes","DTTA","TUN","","http://www.oaca.nat.tn/english/div_horizontal_tunis_airport_eng.htm","http://en.wikipedia.org/wiki/Tunis-Carthage_International_Airport","Aéroport international de Tunis-Carthage, مطار تونس قرطاج الدولي"
2136,"DTTF","medium_airport","Gafsa Ksar International Airport",34.4220008850098,8.82250022888184,1060,"AF","TN","TN-71","Gafsa","yes","DTTF","GAF","","","http://en.wikipedia.org/wiki/Gafsa_-_Ksar_International_Airport",""
2137,"DTTG","medium_airport","Gabès Matmata International Airport",33.8768997192383,10.1033000946045,26,"AF","TN","TN-81","Gabès","yes","DTTG","GAE","","","http://en.wikipedia.org/wiki/Gab%C3%A8s_-_Matmata_International_Airport",""
2139,"DTTJ","medium_airport","Djerba Zarzis International Airport",33.875,10.7755002975464,19,"AF","TN","TN-82","Djerba","yes","DTTJ","DJE","","","http://en.wikipedia.org/wiki/Djerba-Zarzis_Airport",""
2140,"DTTR","medium_airport","El Borma Airport",31.7042999267578,9.25461959838867,827,"AF","TN","TN-83","El Borma","no","DTTR","EBM","","","",""
2141,"DTTX","medium_airport","Sfax Thyna International Airport",34.7179985046387,10.6909999847412,85,"AF","TN","TN-61","Sfax","yes","DTTX","SFA","","","http://en.wikipedia.org/wiki/Thyna_Airport",""
2142,"DTTZ","medium_airport","Tozeur Nefta International Airport",33.9397010803223,8.11056041717529,287,"AF","TN","TN-72","Tozeur","yes","DTTZ","TOE","","","http://en.wikipedia.org/wiki/Nefta_Airport",""
2143,"DXNG","medium_airport","Niamtougou International Airport",9.76733016967773,1.09124994277954,1515,"AF","TG","TG-K","Niamtougou","no","DXNG","LRL","","","http://en.wikipedia.org/wiki/Niamtougou_International_Airport",""
2144,"DXXX","medium_airport","Lomé-Tokoin Airport",6.16560983657837,1.25451004505157,72,"AF","TG","TG-M","Lomé","yes","DXXX","LFW","","","http://en.wikipedia.org/wiki/Lom%C3%A9-Tokoin_Airport","Gnassingbe Eyadema International Airport"
